[
  {
    "id": "vt-capitalcity-1",
    "name": "Capital City TMS & Wellness Center 1",
    "slug": "capital-city-tms-&-wellness-center-1-capital-city",
    "address": "8942 Main St, Ste 417",
    "city": "Capital City",
    "county": "Main County",
    "state": "VT",
    "zip": "43285",
    "geo": {
      "lat": 34.23747002577225,
      "lng": -96.22361587552747
    },
    "phone": "(555) 488-3197",
    "website": "https://example.com",
    "machines": [
      "CloudTMS"
    ],
    "specialties": [
      "Anxiety",
      "PTSD",
      "Depression"
    ],
    "insurances": [
      "Medicaid",
      "UnitedHealthcare",
      "Aetna",
      "Cigna",
      "BlueCross"
    ],
    "logo_url": "https://placehold.co/200x200/png?text=C",
    "hero_image_url": "https://placehold.co/1200x600/e2e8f0/475569?text=Capital+City+TMS+&+Wellness+Center+1",
    "rating": 4.3,
    "review_count": 330,
    "verified": true,
    "type": "Medical Clinic",
    "doctors": [
      "Dr. John Doe",
      "Dr. Robert Smith"
    ],
    "description": "Leading mental health clinic in Main County offering FDA-cleared TMS therapy for depression and OCD."
  },
  {
    "id": "vt-capitalcity-2",
    "name": "Capital City TMS & Wellness Center 2",
    "slug": "capital-city-tms-&-wellness-center-2-capital-city",
    "address": "3604 Oak St, Ste 172",
    "city": "Capital City",
    "county": "Main County",
    "state": "VT",
    "zip": "90371",
    "geo": {
      "lat": 39.927544868119284,
      "lng": -96.43020757133515
    },
    "phone": "(555) 330-2202",
    "website": "https://example.com",
    "machines": [
      "Magstim"
    ],
    "specialties": [
      "Anxiety",
      "PTSD",
      "Depression"
    ],
    "insurances": [
      "BlueCross",
      "Aetna",
      "UnitedHealthcare"
    ],
    "logo_url": "https://placehold.co/200x200/png?text=C",
    "hero_image_url": "https://placehold.co/1200x600/e2e8f0/475569?text=Capital+City+TMS+&+Wellness+Center+2",
    "rating": 4.9,
    "review_count": 58,
    "verified": true,
    "type": "Medical Clinic",
    "doctors": [
      "Dr. Jane Doe",
      "Dr. Emily Smith"
    ],
    "description": "Leading mental health clinic in Main County offering FDA-cleared TMS therapy for depression and OCD."
  },
  {
    "id": "vt-capitalcity-3",
    "name": "Capital City TMS & Wellness Center 3",
    "slug": "capital-city-tms-&-wellness-center-3-capital-city",
    "address": "6235 Main St, Ste 355",
    "city": "Capital City",
    "county": "Main County",
    "state": "VT",
    "zip": "33487",
    "geo": {
      "lat": 33.40335896253626,
      "lng": -90.09247115817702
    },
    "phone": "(555) 918-5256",
    "website": "https://example.com",
    "machines": [
      "Nexstim"
    ],
    "specialties": [
      "Anxiety",
      "OCD",
      "Depression"
    ],
    "insurances": [
      "Tricare",
      "Medicaid",
      "Medicare",
      "Cigna",
      "Aetna"
    ],
    "logo_url": "https://placehold.co/200x200/png?text=C",
    "hero_image_url": "https://placehold.co/1200x600/e2e8f0/475569?text=Capital+City+TMS+&+Wellness+Center+3",
    "rating": 4.6,
    "review_count": 361,
    "verified": false,
    "type": "Medical Clinic",
    "doctors": [
      "Dr. John Doe",
      "Dr. Robert Smith"
    ],
    "description": "Leading mental health clinic in Main County offering FDA-cleared TMS therapy for depression and OCD."
  },
  {
    "id": "vt-capitalcity-4",
    "name": "Dr. David Garcia Psychiatry",
    "slug": "dr-david-garcia-psychiatry-capital-city",
    "address": "2931 Main St, Ste 240",
    "city": "Capital City",
    "county": "Main County",
    "state": "VT",
    "zip": "62964",
    "geo": {
      "lat": 34.71639728118299,
      "lng": -97.29751893693695
    },
    "phone": "(555) 913-8576",
    "website": "https://example.com",
    "machines": [
      "NeuroStar",
      "CloudTMS"
    ],
    "specialties": [
      "Bipolar",
      "Anxiety",
      "Chronic Pain"
    ],
    "insurances": [
      "BlueCross",
      "Aetna",
      "Cigna",
      "UnitedHealthcare",
      "Medicare"
    ],
    "logo_url": "https://placehold.co/200x200/png?text=D",
    "hero_image_url": "https://placehold.co/1200x600/e2e8f0/475569?text=Dr.+David+Garcia+Psychiatry",
    "rating": 4.4,
    "review_count": 77,
    "verified": true,
    "type": "Private Practice",
    "doctors": [
      "Dr. John Doe",
      "Dr. Robert Smith"
    ],
    "description": "A private psychiatric practice in Capital City, specializing in advanced neuromodulation and personalized mental health care."
  },
  {
    "id": "vt-capitalcity-5",
    "name": "Capital City TMS & Wellness Center 5",
    "slug": "capital-city-tms-&-wellness-center-5-capital-city",
    "address": "6157 Main St, Ste 146",
    "city": "Capital City",
    "county": "Main County",
    "state": "VT",
    "zip": "25739",
    "geo": {
      "lat": 30.992747255629876,
      "lng": -92.35790141486598
    },
    "phone": "(555) 898-3616",
    "website": "https://example.com",
    "machines": [
      "BrainsWay",
      "Magstim"
    ],
    "specialties": [
      "Chronic Pain",
      "OCD",
      "PTSD",
      "Depression",
      "Bipolar"
    ],
    "insurances": [
      "Aetna",
      "Medicaid",
      "UnitedHealthcare",
      "Tricare",
      "BlueCross",
      "Cigna"
    ],
    "logo_url": "https://placehold.co/200x200/png?text=C",
    "hero_image_url": "https://placehold.co/1200x600/e2e8f0/475569?text=Capital+City+TMS+&+Wellness+Center+5",
    "rating": 4.0,
    "review_count": 31,
    "verified": true,
    "type": "Medical Clinic",
    "doctors": [
      "Dr. Jane Doe",
      "Dr. Emily Smith"
    ],
    "description": "Leading mental health clinic in Main County offering FDA-cleared TMS therapy for depression and OCD."
  },
  {
    "id": "vt-capitalcity-6",
    "name": "Dr. Michael Lee Psychiatry",
    "slug": "dr-michael-lee-psychiatry-capital-city",
    "address": "7987 Maple St, Ste 295",
    "city": "Capital City",
    "county": "Main County",
    "state": "VT",
    "zip": "57761",
    "geo": {
      "lat": 35.640468329160214,
      "lng": -95.98420938959359
    },
    "phone": "(555) 358-9709",
    "website": "https://example.com",
    "machines": [
      "NeuroStar",
      "Magstim"
    ],
    "specialties": [
      "OCD",
      "Chronic Pain",
      "PTSD",
      "Bipolar",
      "Depression"
    ],
    "insurances": [
      "Aetna",
      "BlueCross",
      "Tricare",
      "Medicare"
    ],
    "logo_url": "https://placehold.co/200x200/png?text=D",
    "hero_image_url": "https://placehold.co/1200x600/e2e8f0/475569?text=Dr.+Michael+Lee+Psychiatry",
    "rating": 5.0,
    "review_count": 427,
    "verified": true,
    "type": "Private Practice",
    "doctors": [
      "Dr. Jane Doe",
      "Dr. Emily Smith"
    ],
    "description": "A private psychiatric practice in Capital City, specializing in advanced neuromodulation and personalized mental health care."
  },
  {
    "id": "vt-metrocity-7",
    "name": "Metro City TMS & Wellness Center 1",
    "slug": "metro-city-tms-&-wellness-center-1-metro-city",
    "address": "9151 Cedar St, Ste 286",
    "city": "Metro City",
    "county": "Metro County",
    "state": "VT",
    "zip": "41869",
    "geo": {
      "lat": 33.87131852063621,
      "lng": -93.91685481077425
    },
    "phone": "(555) 806-7063",
    "website": "https://example.com",
    "machines": [
      "NeuroStar",
      "CloudTMS"
    ],
    "specialties": [
      "PTSD",
      "Bipolar",
      "Chronic Pain",
      "OCD"
    ],
    "insurances": [
      "Tricare",
      "Aetna",
      "Medicaid",
      "UnitedHealthcare",
      "Medicare",
      "BlueCross"
    ],
    "logo_url": "https://placehold.co/200x200/png?text=M",
    "hero_image_url": "https://placehold.co/1200x600/e2e8f0/475569?text=Metro+City+TMS+&+Wellness+Center+1",
    "rating": 4.7,
    "review_count": 311,
    "verified": true,
    "type": "Medical Clinic",
    "doctors": [
      "Dr. John Doe",
      "Dr. Emily Smith"
    ],
    "description": "Leading mental health clinic in Metro County offering FDA-cleared TMS therapy for depression and OCD."
  },
  {
    "id": "vt-metrocity-8",
    "name": "Dr. Lisa Patel Psychiatry",
    "slug": "dr-lisa-patel-psychiatry-metro-city",
    "address": "6189 Oak St, Ste 107",
    "city": "Metro City",
    "county": "Metro County",
    "state": "VT",
    "zip": "18594",
    "geo": {
      "lat": 32.0071908985949,
      "lng": -96.8449465425736
    },
    "phone": "(555) 523-2118",
    "website": "https://example.com",
    "machines": [
      "CloudTMS",
      "NeuroStar"
    ],
    "specialties": [
      "Anxiety",
      "Depression",
      "OCD",
      "Bipolar"
    ],
    "insurances": [
      "Tricare",
      "UnitedHealthcare",
      "BlueCross",
      "Medicaid",
      "Aetna"
    ],
    "logo_url": "https://placehold.co/200x200/png?text=D",
    "hero_image_url": "https://placehold.co/1200x600/e2e8f0/475569?text=Dr.+Lisa+Patel+Psychiatry",
    "rating": 4.8,
    "review_count": 489,
    "verified": true,
    "type": "Private Practice",
    "doctors": [
      "Dr. John Doe",
      "Dr. Robert Smith"
    ],
    "description": "A private psychiatric practice in Metro City, specializing in advanced neuromodulation and personalized mental health care."
  },
  {
    "id": "vt-metrocity-9",
    "name": "Metro City TMS & Wellness Center 3",
    "slug": "metro-city-tms-&-wellness-center-3-metro-city",
    "address": "6548 Cedar St, Ste 155",
    "city": "Metro City",
    "county": "Metro County",
    "state": "VT",
    "zip": "92217",
    "geo": {
      "lat": 33.06511552551915,
      "lng": -95.69459511658376
    },
    "phone": "(555) 803-7918",
    "website": "https://example.com",
    "machines": [
      "NeuroStar",
      "Nexstim"
    ],
    "specialties": [
      "Anxiety",
      "PTSD",
      "Depression",
      "Bipolar"
    ],
    "insurances": [
      "Cigna",
      "BlueCross",
      "Medicaid",
      "Medicare"
    ],
    "logo_url": "https://placehold.co/200x200/png?text=M",
    "hero_image_url": "https://placehold.co/1200x600/e2e8f0/475569?text=Metro+City+TMS+&+Wellness+Center+3",
    "rating": 4.6,
    "review_count": 481,
    "verified": false,
    "type": "Medical Clinic",
    "doctors": [
      "Dr. Jane Doe",
      "Dr. Emily Smith"
    ],
    "description": "Leading mental health clinic in Metro County offering FDA-cleared TMS therapy for depression and OCD."
  },
  {
    "id": "vt-metrocity-10",
    "name": "Dr. Jennifer Garcia Psychiatry",
    "slug": "dr-jennifer-garcia-psychiatry-metro-city",
    "address": "2744 Cedar St, Ste 293",
    "city": "Metro City",
    "county": "Metro County",
    "state": "VT",
    "zip": "25094",
    "geo": {
      "lat": 35.15058096866905,
      "lng": -99.19910257732934
    },
    "phone": "(555) 644-3039",
    "website": "https://example.com",
    "machines": [
      "MagVenture",
      "BrainsWay"
    ],
    "specialties": [
      "Anxiety",
      "Bipolar",
      "OCD",
      "PTSD"
    ],
    "insurances": [
      "Medicare",
      "Medicaid",
      "BlueCross",
      "Cigna",
      "Aetna"
    ],
    "logo_url": "https://placehold.co/200x200/png?text=D",
    "hero_image_url": "https://placehold.co/1200x600/e2e8f0/475569?text=Dr.+Jennifer+Garcia+Psychiatry",
    "rating": 4.2,
    "review_count": 451,
    "verified": false,
    "type": "Private Practice",
    "doctors": [
      "Dr. Jane Doe",
      "Dr. Robert Smith"
    ],
    "description": "A private psychiatric practice in Metro City, specializing in advanced neuromodulation and personalized mental health care."
  }
]