[
  {
    "id": "ct-capitalcity-1",
    "name": "Dr. Alan Martinez Psychiatry",
    "slug": "dr-alan-martinez-psychiatry-capital-city",
    "address": "1333 Cedar St, Ste 270",
    "city": "Capital City",
    "county": "Main County",
    "state": "CT",
    "zip": "60017",
    "geo": {
      "lat": 35.29927397959922,
      "lng": -92.03720464176229
    },
    "phone": "(555) 816-4055",
    "website": "https://example.com",
    "machines": [
      "BrainsWay",
      "MagVenture"
    ],
    "specialties": [
      "Bipolar",
      "OCD",
      "Anxiety",
      "Chronic Pain",
      "Depression"
    ],
    "insurances": [
      "Medicare",
      "Cigna",
      "Medicaid",
      "UnitedHealthcare"
    ],
    "logo_url": "https://placehold.co/200x200/png?text=D",
    "hero_image_url": "https://placehold.co/1200x600/e2e8f0/475569?text=Dr.+Alan+Martinez+Psychiatry",
    "rating": 4.3,
    "review_count": 272,
    "verified": true,
    "type": "Private Practice",
    "doctors": [
      "Dr. John Doe",
      "Dr. Emily Smith"
    ],
    "description": "A private psychiatric practice in Capital City, specializing in advanced neuromodulation and personalized mental health care."
  },
  {
    "id": "ct-capitalcity-2",
    "name": "Dr. David Lee Psychiatry",
    "slug": "dr-david-lee-psychiatry-capital-city",
    "address": "3284 Cedar St, Ste 298",
    "city": "Capital City",
    "county": "Main County",
    "state": "CT",
    "zip": "30875",
    "geo": {
      "lat": 37.04467265258352,
      "lng": -96.18982774296083
    },
    "phone": "(555) 860-1463",
    "website": "https://example.com",
    "machines": [
      "Nexstim",
      "Magstim"
    ],
    "specialties": [
      "PTSD",
      "Anxiety",
      "Bipolar"
    ],
    "insurances": [
      "Medicaid",
      "UnitedHealthcare",
      "Aetna",
      "Cigna",
      "Medicare",
      "Tricare"
    ],
    "logo_url": "https://placehold.co/200x200/png?text=D",
    "hero_image_url": "https://placehold.co/1200x600/e2e8f0/475569?text=Dr.+David+Lee+Psychiatry",
    "rating": 4.9,
    "review_count": 207,
    "verified": true,
    "type": "Private Practice",
    "doctors": [
      "Dr. John Doe",
      "Dr. Emily Smith"
    ],
    "description": "A private psychiatric practice in Capital City, specializing in advanced neuromodulation and personalized mental health care."
  },
  {
    "id": "ct-capitalcity-3",
    "name": "Dr. Lisa Smith Psychiatry",
    "slug": "dr-lisa-smith-psychiatry-capital-city",
    "address": "716 Main St, Ste 176",
    "city": "Capital City",
    "county": "Main County",
    "state": "CT",
    "zip": "95699",
    "geo": {
      "lat": 30.254605451371237,
      "lng": -99.41469895153521
    },
    "phone": "(555) 388-9615",
    "website": "https://example.com",
    "machines": [
      "MagVenture",
      "Nexstim"
    ],
    "specialties": [
      "PTSD",
      "Bipolar",
      "Chronic Pain"
    ],
    "insurances": [
      "Cigna",
      "Medicare",
      "BlueCross"
    ],
    "logo_url": "https://placehold.co/200x200/png?text=D",
    "hero_image_url": "https://placehold.co/1200x600/e2e8f0/475569?text=Dr.+Lisa+Smith+Psychiatry",
    "rating": 4.1,
    "review_count": 28,
    "verified": true,
    "type": "Private Practice",
    "doctors": [
      "Dr. John Doe",
      "Dr. Robert Smith"
    ],
    "description": "A private psychiatric practice in Capital City, specializing in advanced neuromodulation and personalized mental health care."
  },
  {
    "id": "ct-capitalcity-4",
    "name": "Capital City TMS & Wellness Center 4",
    "slug": "capital-city-tms-&-wellness-center-4-capital-city",
    "address": "7554 Cedar St, Ste 316",
    "city": "Capital City",
    "county": "Main County",
    "state": "CT",
    "zip": "70276",
    "geo": {
      "lat": 33.433098252701214,
      "lng": -96.88264909721052
    },
    "phone": "(555) 568-7562",
    "website": "https://example.com",
    "machines": [
      "Magstim",
      "BrainsWay"
    ],
    "specialties": [
      "Chronic Pain",
      "Anxiety",
      "Depression",
      "OCD"
    ],
    "insurances": [
      "Cigna",
      "BlueCross",
      "UnitedHealthcare",
      "Tricare",
      "Aetna"
    ],
    "logo_url": "https://placehold.co/200x200/png?text=C",
    "hero_image_url": "https://placehold.co/1200x600/e2e8f0/475569?text=Capital+City+TMS+&+Wellness+Center+4",
    "rating": 4.8,
    "review_count": 53,
    "verified": true,
    "type": "Medical Clinic",
    "doctors": [
      "Dr. John Doe",
      "Dr. Robert Smith"
    ],
    "description": "Leading mental health clinic in Main County offering FDA-cleared TMS therapy for depression and OCD."
  },
  {
    "id": "ct-metrocity-5",
    "name": "Dr. Sarah Kim Psychiatry",
    "slug": "dr-sarah-kim-psychiatry-metro-city",
    "address": "8440 Main St, Ste 163",
    "city": "Metro City",
    "county": "Metro County",
    "state": "CT",
    "zip": "91125",
    "geo": {
      "lat": 33.51501374543324,
      "lng": -92.75583997769796
    },
    "phone": "(555) 967-8992",
    "website": "https://example.com",
    "machines": [
      "Nexstim"
    ],
    "specialties": [
      "Depression",
      "Bipolar",
      "Chronic Pain",
      "OCD",
      "Anxiety"
    ],
    "insurances": [
      "Medicare",
      "BlueCross",
      "UnitedHealthcare"
    ],
    "logo_url": "https://placehold.co/200x200/png?text=D",
    "hero_image_url": "https://placehold.co/1200x600/e2e8f0/475569?text=Dr.+Sarah+Kim+Psychiatry",
    "rating": 4.9,
    "review_count": 83,
    "verified": true,
    "type": "Private Practice",
    "doctors": [
      "Dr. John Doe",
      "Dr. Emily Smith"
    ],
    "description": "A private psychiatric practice in Metro City, specializing in advanced neuromodulation and personalized mental health care."
  },
  {
    "id": "ct-metrocity-6",
    "name": "Metro City TMS & Wellness Center 2",
    "slug": "metro-city-tms-&-wellness-center-2-metro-city",
    "address": "5083 Cedar St, Ste 385",
    "city": "Metro City",
    "county": "Metro County",
    "state": "CT",
    "zip": "90711",
    "geo": {
      "lat": 32.16456059339143,
      "lng": -99.85087830549094
    },
    "phone": "(555) 950-9226",
    "website": "https://example.com",
    "machines": [
      "NeuroStar",
      "Magstim"
    ],
    "specialties": [
      "Chronic Pain",
      "PTSD",
      "OCD",
      "Depression",
      "Anxiety"
    ],
    "insurances": [
      "UnitedHealthcare",
      "Cigna",
      "Aetna",
      "Tricare"
    ],
    "logo_url": "https://placehold.co/200x200/png?text=M",
    "hero_image_url": "https://placehold.co/1200x600/e2e8f0/475569?text=Metro+City+TMS+&+Wellness+Center+2",
    "rating": 4.1,
    "review_count": 237,
    "verified": true,
    "type": "Medical Clinic",
    "doctors": [
      "Dr. John Doe",
      "Dr. Robert Smith"
    ],
    "description": "Leading mental health clinic in Metro County offering FDA-cleared TMS therapy for depression and OCD."
  },
  {
    "id": "ct-metrocity-7",
    "name": "Metro City TMS & Wellness Center 3",
    "slug": "metro-city-tms-&-wellness-center-3-metro-city",
    "address": "3484 Maple St, Ste 116",
    "city": "Metro City",
    "county": "Metro County",
    "state": "CT",
    "zip": "56805",
    "geo": {
      "lat": 35.23708304669924,
      "lng": -93.46353064187042
    },
    "phone": "(555) 595-7098",
    "website": "https://example.com",
    "machines": [
      "CloudTMS",
      "NeuroStar"
    ],
    "specialties": [
      "Depression",
      "Anxiety",
      "PTSD",
      "Bipolar",
      "Chronic Pain"
    ],
    "insurances": [
      "Cigna",
      "UnitedHealthcare",
      "Aetna",
      "Medicare",
      "Medicaid"
    ],
    "logo_url": "https://placehold.co/200x200/png?text=M",
    "hero_image_url": "https://placehold.co/1200x600/e2e8f0/475569?text=Metro+City+TMS+&+Wellness+Center+3",
    "rating": 4.4,
    "review_count": 188,
    "verified": false,
    "type": "Medical Clinic",
    "doctors": [
      "Dr. John Doe",
      "Dr. Robert Smith"
    ],
    "description": "Leading mental health clinic in Metro County offering FDA-cleared TMS therapy for depression and OCD."
  },
  {
    "id": "ct-metrocity-8",
    "name": "Metro City TMS & Wellness Center 4",
    "slug": "metro-city-tms-&-wellness-center-4-metro-city",
    "address": "1673 Maple St, Ste 365",
    "city": "Metro City",
    "county": "Metro County",
    "state": "CT",
    "zip": "18388",
    "geo": {
      "lat": 33.94274071352494,
      "lng": -99.72377136958703
    },
    "phone": "(555) 622-5937",
    "website": "https://example.com",
    "machines": [
      "CloudTMS",
      "MagVenture"
    ],
    "specialties": [
      "Anxiety",
      "Depression",
      "OCD"
    ],
    "insurances": [
      "BlueCross",
      "Tricare",
      "UnitedHealthcare",
      "Aetna"
    ],
    "logo_url": "https://placehold.co/200x200/png?text=M",
    "hero_image_url": "https://placehold.co/1200x600/e2e8f0/475569?text=Metro+City+TMS+&+Wellness+Center+4",
    "rating": 4.2,
    "review_count": 178,
    "verified": true,
    "type": "Medical Clinic",
    "doctors": [
      "Dr. Jane Doe",
      "Dr. Emily Smith"
    ],
    "description": "Leading mental health clinic in Metro County offering FDA-cleared TMS therapy for depression and OCD."
  },
  {
    "id": "ct-metrocity-9",
    "name": "Dr. Michael Martinez Psychiatry",
    "slug": "dr-michael-martinez-psychiatry-metro-city",
    "address": "423 Main St, Ste 486",
    "city": "Metro City",
    "county": "Metro County",
    "state": "CT",
    "zip": "43623",
    "geo": {
      "lat": 38.6512907353361,
      "lng": -97.72810928010144
    },
    "phone": "(555) 194-6151",
    "website": "https://example.com",
    "machines": [
      "Nexstim",
      "MagVenture"
    ],
    "specialties": [
      "Depression",
      "OCD",
      "Bipolar"
    ],
    "insurances": [
      "Aetna",
      "Cigna",
      "Tricare",
      "Medicare",
      "BlueCross"
    ],
    "logo_url": "https://placehold.co/200x200/png?text=D",
    "hero_image_url": "https://placehold.co/1200x600/e2e8f0/475569?text=Dr.+Michael+Martinez+Psychiatry",
    "rating": 4.1,
    "review_count": 413,
    "verified": true,
    "type": "Private Practice",
    "doctors": [
      "Dr. Jane Doe",
      "Dr. Emily Smith"
    ],
    "description": "A private psychiatric practice in Metro City, specializing in advanced neuromodulation and personalized mental health care."
  }
]