[
  {
    "id": "wa-capitalcity-1",
    "name": "Capital City TMS & Wellness Center 1",
    "slug": "capital-city-tms-&-wellness-center-1-capital-city",
    "address": "931 Main St, Ste 196",
    "city": "Capital City",
    "county": "Main County",
    "state": "WA",
    "zip": "69253",
    "geo": {
      "lat": 32.28802261102688,
      "lng": -93.77646925585324
    },
    "phone": "(555) 524-1553",
    "website": "https://example.com",
    "machines": [
      "NeuroStar",
      "Magstim"
    ],
    "specialties": [
      "Chronic Pain",
      "Depression",
      "Anxiety"
    ],
    "insurances": [
      "UnitedHealthcare",
      "Cigna",
      "Tricare"
    ],
    "logo_url": "https://placehold.co/200x200/png?text=C",
    "hero_image_url": "https://placehold.co/1200x600/e2e8f0/475569?text=Capital+City+TMS+&+Wellness+Center+1",
    "rating": 4.8,
    "review_count": 49,
    "verified": true,
    "type": "Medical Clinic",
    "doctors": [
      "Dr. John Doe",
      "Dr. Robert Smith"
    ],
    "description": "Leading mental health clinic in Main County offering FDA-cleared TMS therapy for depression and OCD."
  },
  {
    "id": "wa-capitalcity-2",
    "name": "Capital City TMS & Wellness Center 2",
    "slug": "capital-city-tms-&-wellness-center-2-capital-city",
    "address": "6115 Oak St, Ste 272",
    "city": "Capital City",
    "county": "Main County",
    "state": "WA",
    "zip": "43180",
    "geo": {
      "lat": 38.21003603772414,
      "lng": -90.98833726756416
    },
    "phone": "(555) 492-9998",
    "website": "https://example.com",
    "machines": [
      "Magstim",
      "CloudTMS"
    ],
    "specialties": [
      "PTSD",
      "Anxiety",
      "OCD",
      "Bipolar"
    ],
    "insurances": [
      "Medicare",
      "UnitedHealthcare",
      "Aetna"
    ],
    "logo_url": "https://placehold.co/200x200/png?text=C",
    "hero_image_url": "https://placehold.co/1200x600/e2e8f0/475569?text=Capital+City+TMS+&+Wellness+Center+2",
    "rating": 4.7,
    "review_count": 136,
    "verified": true,
    "type": "Medical Clinic",
    "doctors": [
      "Dr. Jane Doe",
      "Dr. Robert Smith"
    ],
    "description": "Leading mental health clinic in Main County offering FDA-cleared TMS therapy for depression and OCD."
  },
  {
    "id": "wa-capitalcity-3",
    "name": "Dr. Sarah Martinez Psychiatry",
    "slug": "dr-sarah-martinez-psychiatry-capital-city",
    "address": "4833 Maple St, Ste 192",
    "city": "Capital City",
    "county": "Main County",
    "state": "WA",
    "zip": "81910",
    "geo": {
      "lat": 31.350094305624815,
      "lng": -90.12630068131128
    },
    "phone": "(555) 766-9836",
    "website": "https://example.com",
    "machines": [
      "MagVenture"
    ],
    "specialties": [
      "Anxiety",
      "Chronic Pain",
      "Depression",
      "OCD"
    ],
    "insurances": [
      "Medicare",
      "Tricare",
      "UnitedHealthcare",
      "Aetna",
      "Cigna"
    ],
    "logo_url": "https://placehold.co/200x200/png?text=D",
    "hero_image_url": "https://placehold.co/1200x600/e2e8f0/475569?text=Dr.+Sarah+Martinez+Psychiatry",
    "rating": 4.7,
    "review_count": 408,
    "verified": false,
    "type": "Private Practice",
    "doctors": [
      "Dr. Jane Doe",
      "Dr. Emily Smith"
    ],
    "description": "A private psychiatric practice in Capital City, specializing in advanced neuromodulation and personalized mental health care."
  },
  {
    "id": "wa-capitalcity-4",
    "name": "Capital City TMS & Wellness Center 4",
    "slug": "capital-city-tms-&-wellness-center-4-capital-city",
    "address": "5411 Cedar St, Ste 270",
    "city": "Capital City",
    "county": "Main County",
    "state": "WA",
    "zip": "84364",
    "geo": {
      "lat": 38.48269088070591,
      "lng": -98.3571698505724
    },
    "phone": "(555) 465-2610",
    "website": "https://example.com",
    "machines": [
      "MagVenture",
      "Nexstim"
    ],
    "specialties": [
      "Depression",
      "Anxiety",
      "PTSD"
    ],
    "insurances": [
      "Medicaid",
      "UnitedHealthcare",
      "Cigna"
    ],
    "logo_url": "https://placehold.co/200x200/png?text=C",
    "hero_image_url": "https://placehold.co/1200x600/e2e8f0/475569?text=Capital+City+TMS+&+Wellness+Center+4",
    "rating": 4.7,
    "review_count": 358,
    "verified": true,
    "type": "Medical Clinic",
    "doctors": [
      "Dr. Jane Doe",
      "Dr. Emily Smith"
    ],
    "description": "Leading mental health clinic in Main County offering FDA-cleared TMS therapy for depression and OCD."
  },
  {
    "id": "wa-capitalcity-5",
    "name": "Dr. Michael Smith Psychiatry",
    "slug": "dr-michael-smith-psychiatry-capital-city",
    "address": "576 Main St, Ste 136",
    "city": "Capital City",
    "county": "Main County",
    "state": "WA",
    "zip": "49640",
    "geo": {
      "lat": 38.11905640052029,
      "lng": -98.05666714631447
    },
    "phone": "(555) 399-3843",
    "website": "https://example.com",
    "machines": [
      "Magstim",
      "NeuroStar"
    ],
    "specialties": [
      "Anxiety",
      "PTSD",
      "Chronic Pain",
      "Depression",
      "OCD"
    ],
    "insurances": [
      "Medicare",
      "Medicaid",
      "Cigna"
    ],
    "logo_url": "https://placehold.co/200x200/png?text=D",
    "hero_image_url": "https://placehold.co/1200x600/e2e8f0/475569?text=Dr.+Michael+Smith+Psychiatry",
    "rating": 4.9,
    "review_count": 391,
    "verified": true,
    "type": "Private Practice",
    "doctors": [
      "Dr. Jane Doe",
      "Dr. Robert Smith"
    ],
    "description": "A private psychiatric practice in Capital City, specializing in advanced neuromodulation and personalized mental health care."
  },
  {
    "id": "wa-capitalcity-6",
    "name": "Dr. David Johnson Psychiatry",
    "slug": "dr-david-johnson-psychiatry-capital-city",
    "address": "272 Main St, Ste 379",
    "city": "Capital City",
    "county": "Main County",
    "state": "WA",
    "zip": "23477",
    "geo": {
      "lat": 30.799156254125908,
      "lng": -94.71917637204929
    },
    "phone": "(555) 518-9771",
    "website": "https://example.com",
    "machines": [
      "Nexstim"
    ],
    "specialties": [
      "Bipolar",
      "PTSD",
      "Depression",
      "Anxiety"
    ],
    "insurances": [
      "Medicare",
      "BlueCross",
      "Cigna",
      "Aetna",
      "UnitedHealthcare",
      "Tricare"
    ],
    "logo_url": "https://placehold.co/200x200/png?text=D",
    "hero_image_url": "https://placehold.co/1200x600/e2e8f0/475569?text=Dr.+David+Johnson+Psychiatry",
    "rating": 4.4,
    "review_count": 440,
    "verified": true,
    "type": "Private Practice",
    "doctors": [
      "Dr. John Doe",
      "Dr. Robert Smith"
    ],
    "description": "A private psychiatric practice in Capital City, specializing in advanced neuromodulation and personalized mental health care."
  },
  {
    "id": "wa-metrocity-7",
    "name": "Metro City TMS & Wellness Center 1",
    "slug": "metro-city-tms-&-wellness-center-1-metro-city",
    "address": "4841 Main St, Ste 142",
    "city": "Metro City",
    "county": "Metro County",
    "state": "WA",
    "zip": "88134",
    "geo": {
      "lat": 37.38285615492284,
      "lng": -93.0095707875994
    },
    "phone": "(555) 364-7239",
    "website": "https://example.com",
    "machines": [
      "CloudTMS"
    ],
    "specialties": [
      "Bipolar",
      "Chronic Pain",
      "PTSD"
    ],
    "insurances": [
      "Cigna",
      "Medicaid",
      "Medicare",
      "Tricare",
      "UnitedHealthcare",
      "Aetna"
    ],
    "logo_url": "https://placehold.co/200x200/png?text=M",
    "hero_image_url": "https://placehold.co/1200x600/e2e8f0/475569?text=Metro+City+TMS+&+Wellness+Center+1",
    "rating": 4.2,
    "review_count": 278,
    "verified": true,
    "type": "Medical Clinic",
    "doctors": [
      "Dr. John Doe",
      "Dr. Emily Smith"
    ],
    "description": "Leading mental health clinic in Metro County offering FDA-cleared TMS therapy for depression and OCD."
  },
  {
    "id": "wa-metrocity-8",
    "name": "Metro City TMS & Wellness Center 2",
    "slug": "metro-city-tms-&-wellness-center-2-metro-city",
    "address": "8124 Cedar St, Ste 306",
    "city": "Metro City",
    "county": "Metro County",
    "state": "WA",
    "zip": "24411",
    "geo": {
      "lat": 33.78202749270996,
      "lng": -93.5537886913675
    },
    "phone": "(555) 748-7525",
    "website": "https://example.com",
    "machines": [
      "Magstim"
    ],
    "specialties": [
      "Bipolar",
      "Chronic Pain",
      "OCD",
      "PTSD"
    ],
    "insurances": [
      "Aetna",
      "Cigna",
      "BlueCross",
      "Medicaid",
      "Tricare"
    ],
    "logo_url": "https://placehold.co/200x200/png?text=M",
    "hero_image_url": "https://placehold.co/1200x600/e2e8f0/475569?text=Metro+City+TMS+&+Wellness+Center+2",
    "rating": 4.2,
    "review_count": 160,
    "verified": true,
    "type": "Medical Clinic",
    "doctors": [
      "Dr. John Doe",
      "Dr. Emily Smith"
    ],
    "description": "Leading mental health clinic in Metro County offering FDA-cleared TMS therapy for depression and OCD."
  },
  {
    "id": "wa-metrocity-9",
    "name": "Metro City TMS & Wellness Center 3",
    "slug": "metro-city-tms-&-wellness-center-3-metro-city",
    "address": "3501 Maple St, Ste 268",
    "city": "Metro City",
    "county": "Metro County",
    "state": "WA",
    "zip": "17626",
    "geo": {
      "lat": 30.310471581168933,
      "lng": -92.75605112162779
    },
    "phone": "(555) 655-2308",
    "website": "https://example.com",
    "machines": [
      "Magstim"
    ],
    "specialties": [
      "Depression",
      "Bipolar",
      "Anxiety",
      "PTSD",
      "OCD"
    ],
    "insurances": [
      "Medicaid",
      "BlueCross",
      "Tricare"
    ],
    "logo_url": "https://placehold.co/200x200/png?text=M",
    "hero_image_url": "https://placehold.co/1200x600/e2e8f0/475569?text=Metro+City+TMS+&+Wellness+Center+3",
    "rating": 4.0,
    "review_count": 100,
    "verified": true,
    "type": "Medical Clinic",
    "doctors": [
      "Dr. Jane Doe",
      "Dr. Robert Smith"
    ],
    "description": "Leading mental health clinic in Metro County offering FDA-cleared TMS therapy for depression and OCD."
  },
  {
    "id": "wa-metrocity-10",
    "name": "Metro City TMS & Wellness Center 4",
    "slug": "metro-city-tms-&-wellness-center-4-metro-city",
    "address": "9671 Main St, Ste 499",
    "city": "Metro City",
    "county": "Metro County",
    "state": "WA",
    "zip": "37101",
    "geo": {
      "lat": 34.52830848422602,
      "lng": -95.26549091231914
    },
    "phone": "(555) 726-3230",
    "website": "https://example.com",
    "machines": [
      "Nexstim",
      "Magstim"
    ],
    "specialties": [
      "PTSD",
      "Bipolar",
      "OCD"
    ],
    "insurances": [
      "Medicaid",
      "Medicare",
      "Tricare",
      "UnitedHealthcare",
      "Aetna",
      "BlueCross"
    ],
    "logo_url": "https://placehold.co/200x200/png?text=M",
    "hero_image_url": "https://placehold.co/1200x600/e2e8f0/475569?text=Metro+City+TMS+&+Wellness+Center+4",
    "rating": 4.3,
    "review_count": 118,
    "verified": true,
    "type": "Medical Clinic",
    "doctors": [
      "Dr. John Doe",
      "Dr. Robert Smith"
    ],
    "description": "Leading mental health clinic in Metro County offering FDA-cleared TMS therapy for depression and OCD."
  },
  {
    "id": "wa-metrocity-11",
    "name": "Dr. Jennifer Smith Psychiatry",
    "slug": "dr-jennifer-smith-psychiatry-metro-city",
    "address": "8432 Oak St, Ste 176",
    "city": "Metro City",
    "county": "Metro County",
    "state": "WA",
    "zip": "49610",
    "geo": {
      "lat": 36.657111566822024,
      "lng": -95.28202809071101
    },
    "phone": "(555) 605-8856",
    "website": "https://example.com",
    "machines": [
      "BrainsWay",
      "Magstim"
    ],
    "specialties": [
      "OCD",
      "Anxiety",
      "Chronic Pain"
    ],
    "insurances": [
      "BlueCross",
      "Aetna",
      "Medicaid",
      "Cigna",
      "Medicare",
      "UnitedHealthcare"
    ],
    "logo_url": "https://placehold.co/200x200/png?text=D",
    "hero_image_url": "https://placehold.co/1200x600/e2e8f0/475569?text=Dr.+Jennifer+Smith+Psychiatry",
    "rating": 4.6,
    "review_count": 228,
    "verified": true,
    "type": "Private Practice",
    "doctors": [
      "Dr. John Doe",
      "Dr. Emily Smith"
    ],
    "description": "A private psychiatric practice in Metro City, specializing in advanced neuromodulation and personalized mental health care."
  },
  {
    "id": "wa-metrocity-12",
    "name": "Dr. Lisa Lee Psychiatry",
    "slug": "dr-lisa-lee-psychiatry-metro-city",
    "address": "1574 Maple St, Ste 108",
    "city": "Metro City",
    "county": "Metro County",
    "state": "WA",
    "zip": "93672",
    "geo": {
      "lat": 31.750764614960467,
      "lng": -99.28607273703803
    },
    "phone": "(555) 865-9870",
    "website": "https://example.com",
    "machines": [
      "Nexstim"
    ],
    "specialties": [
      "Bipolar",
      "Anxiety",
      "Chronic Pain",
      "OCD",
      "PTSD"
    ],
    "insurances": [
      "Medicaid",
      "UnitedHealthcare",
      "BlueCross",
      "Tricare"
    ],
    "logo_url": "https://placehold.co/200x200/png?text=D",
    "hero_image_url": "https://placehold.co/1200x600/e2e8f0/475569?text=Dr.+Lisa+Lee+Psychiatry",
    "rating": 4.2,
    "review_count": 270,
    "verified": false,
    "type": "Private Practice",
    "doctors": [
      "Dr. John Doe",
      "Dr. Robert Smith"
    ],
    "description": "A private psychiatric practice in Metro City, specializing in advanced neuromodulation and personalized mental health care."
  }
]