[
  {
    "id": "mo-capitalcity-1",
    "name": "Dr. David Johnson Psychiatry",
    "slug": "dr-david-johnson-psychiatry-capital-city",
    "address": "9009 Oak St, Ste 197",
    "city": "Capital City",
    "county": "Main County",
    "state": "MO",
    "zip": "28631",
    "geo": {
      "lat": 32.6130664025591,
      "lng": -90.47128627952628
    },
    "phone": "(555) 431-2449",
    "website": "https://example.com",
    "machines": [
      "NeuroStar",
      "CloudTMS"
    ],
    "specialties": [
      "Chronic Pain",
      "OCD",
      "Depression"
    ],
    "insurances": [
      "Cigna",
      "Medicaid",
      "Medicare",
      "UnitedHealthcare"
    ],
    "logo_url": "https://placehold.co/200x200/png?text=D",
    "hero_image_url": "https://placehold.co/1200x600/e2e8f0/475569?text=Dr.+David+Johnson+Psychiatry",
    "rating": 4.3,
    "review_count": 74,
    "verified": true,
    "type": "Private Practice",
    "doctors": [
      "Dr. Jane Doe",
      "Dr. Emily Smith"
    ],
    "description": "A private psychiatric practice in Capital City, specializing in advanced neuromodulation and personalized mental health care."
  },
  {
    "id": "mo-capitalcity-2",
    "name": "Capital City TMS & Wellness Center 2",
    "slug": "capital-city-tms-&-wellness-center-2-capital-city",
    "address": "1703 Oak St, Ste 167",
    "city": "Capital City",
    "county": "Main County",
    "state": "MO",
    "zip": "83695",
    "geo": {
      "lat": 37.61423045244643,
      "lng": -96.07231401515118
    },
    "phone": "(555) 266-2580",
    "website": "https://example.com",
    "machines": [
      "Nexstim",
      "MagVenture"
    ],
    "specialties": [
      "OCD",
      "Depression",
      "Chronic Pain",
      "Anxiety"
    ],
    "insurances": [
      "Aetna",
      "UnitedHealthcare",
      "BlueCross",
      "Cigna",
      "Medicare",
      "Medicaid"
    ],
    "logo_url": "https://placehold.co/200x200/png?text=C",
    "hero_image_url": "https://placehold.co/1200x600/e2e8f0/475569?text=Capital+City+TMS+&+Wellness+Center+2",
    "rating": 4.1,
    "review_count": 310,
    "verified": true,
    "type": "Medical Clinic",
    "doctors": [
      "Dr. Jane Doe",
      "Dr. Robert Smith"
    ],
    "description": "Leading mental health clinic in Main County offering FDA-cleared TMS therapy for depression and OCD."
  },
  {
    "id": "mo-capitalcity-3",
    "name": "Capital City TMS & Wellness Center 3",
    "slug": "capital-city-tms-&-wellness-center-3-capital-city",
    "address": "8934 Maple St, Ste 166",
    "city": "Capital City",
    "county": "Main County",
    "state": "MO",
    "zip": "77210",
    "geo": {
      "lat": 36.684028387822224,
      "lng": -95.16520085391134
    },
    "phone": "(555) 600-1009",
    "website": "https://example.com",
    "machines": [
      "Nexstim",
      "NeuroStar"
    ],
    "specialties": [
      "OCD",
      "PTSD",
      "Anxiety",
      "Depression",
      "Chronic Pain"
    ],
    "insurances": [
      "Tricare",
      "Medicare",
      "Aetna"
    ],
    "logo_url": "https://placehold.co/200x200/png?text=C",
    "hero_image_url": "https://placehold.co/1200x600/e2e8f0/475569?text=Capital+City+TMS+&+Wellness+Center+3",
    "rating": 4.5,
    "review_count": 412,
    "verified": true,
    "type": "Medical Clinic",
    "doctors": [
      "Dr. Jane Doe",
      "Dr. Robert Smith"
    ],
    "description": "Leading mental health clinic in Main County offering FDA-cleared TMS therapy for depression and OCD."
  },
  {
    "id": "mo-capitalcity-4",
    "name": "Capital City TMS & Wellness Center 4",
    "slug": "capital-city-tms-&-wellness-center-4-capital-city",
    "address": "9276 Oak St, Ste 461",
    "city": "Capital City",
    "county": "Main County",
    "state": "MO",
    "zip": "19328",
    "geo": {
      "lat": 38.61953264039437,
      "lng": -91.13821275347138
    },
    "phone": "(555) 574-3999",
    "website": "https://example.com",
    "machines": [
      "CloudTMS",
      "NeuroStar"
    ],
    "specialties": [
      "Bipolar",
      "Anxiety",
      "OCD",
      "PTSD",
      "Chronic Pain"
    ],
    "insurances": [
      "Medicaid",
      "Cigna",
      "Tricare",
      "Aetna",
      "BlueCross",
      "UnitedHealthcare"
    ],
    "logo_url": "https://placehold.co/200x200/png?text=C",
    "hero_image_url": "https://placehold.co/1200x600/e2e8f0/475569?text=Capital+City+TMS+&+Wellness+Center+4",
    "rating": 4.7,
    "review_count": 487,
    "verified": false,
    "type": "Medical Clinic",
    "doctors": [
      "Dr. Jane Doe",
      "Dr. Robert Smith"
    ],
    "description": "Leading mental health clinic in Main County offering FDA-cleared TMS therapy for depression and OCD."
  },
  {
    "id": "mo-capitalcity-5",
    "name": "Capital City TMS & Wellness Center 5",
    "slug": "capital-city-tms-&-wellness-center-5-capital-city",
    "address": "8207 Main St, Ste 389",
    "city": "Capital City",
    "county": "Main County",
    "state": "MO",
    "zip": "21366",
    "geo": {
      "lat": 36.278682648928,
      "lng": -95.86039741604218
    },
    "phone": "(555) 719-5753",
    "website": "https://example.com",
    "machines": [
      "MagVenture"
    ],
    "specialties": [
      "Anxiety",
      "OCD",
      "Bipolar",
      "Depression",
      "PTSD"
    ],
    "insurances": [
      "Medicare",
      "BlueCross",
      "Cigna"
    ],
    "logo_url": "https://placehold.co/200x200/png?text=C",
    "hero_image_url": "https://placehold.co/1200x600/e2e8f0/475569?text=Capital+City+TMS+&+Wellness+Center+5",
    "rating": 4.7,
    "review_count": 350,
    "verified": true,
    "type": "Medical Clinic",
    "doctors": [
      "Dr. John Doe",
      "Dr. Robert Smith"
    ],
    "description": "Leading mental health clinic in Main County offering FDA-cleared TMS therapy for depression and OCD."
  },
  {
    "id": "mo-metrocity-6",
    "name": "Metro City TMS & Wellness Center 1",
    "slug": "metro-city-tms-&-wellness-center-1-metro-city",
    "address": "1078 Cedar St, Ste 320",
    "city": "Metro City",
    "county": "Metro County",
    "state": "MO",
    "zip": "99937",
    "geo": {
      "lat": 32.47126462827919,
      "lng": -93.14173663662893
    },
    "phone": "(555) 227-2917",
    "website": "https://example.com",
    "machines": [
      "Magstim"
    ],
    "specialties": [
      "PTSD",
      "Chronic Pain",
      "Bipolar"
    ],
    "insurances": [
      "Medicaid",
      "BlueCross",
      "UnitedHealthcare",
      "Medicare",
      "Aetna",
      "Tricare"
    ],
    "logo_url": "https://placehold.co/200x200/png?text=M",
    "hero_image_url": "https://placehold.co/1200x600/e2e8f0/475569?text=Metro+City+TMS+&+Wellness+Center+1",
    "rating": 4.7,
    "review_count": 445,
    "verified": true,
    "type": "Medical Clinic",
    "doctors": [
      "Dr. Jane Doe",
      "Dr. Robert Smith"
    ],
    "description": "Leading mental health clinic in Metro County offering FDA-cleared TMS therapy for depression and OCD."
  },
  {
    "id": "mo-metrocity-7",
    "name": "Metro City TMS & Wellness Center 2",
    "slug": "metro-city-tms-&-wellness-center-2-metro-city",
    "address": "3502 Maple St, Ste 275",
    "city": "Metro City",
    "county": "Metro County",
    "state": "MO",
    "zip": "75852",
    "geo": {
      "lat": 30.767131945352773,
      "lng": -91.22857079041657
    },
    "phone": "(555) 368-9941",
    "website": "https://example.com",
    "machines": [
      "NeuroStar",
      "Nexstim"
    ],
    "specialties": [
      "Depression",
      "Chronic Pain",
      "Bipolar",
      "Anxiety",
      "OCD"
    ],
    "insurances": [
      "UnitedHealthcare",
      "Cigna",
      "Medicare",
      "Tricare",
      "Aetna",
      "BlueCross"
    ],
    "logo_url": "https://placehold.co/200x200/png?text=M",
    "hero_image_url": "https://placehold.co/1200x600/e2e8f0/475569?text=Metro+City+TMS+&+Wellness+Center+2",
    "rating": 4.0,
    "review_count": 319,
    "verified": false,
    "type": "Medical Clinic",
    "doctors": [
      "Dr. Jane Doe",
      "Dr. Emily Smith"
    ],
    "description": "Leading mental health clinic in Metro County offering FDA-cleared TMS therapy for depression and OCD."
  },
  {
    "id": "mo-metrocity-8",
    "name": "Metro City TMS & Wellness Center 3",
    "slug": "metro-city-tms-&-wellness-center-3-metro-city",
    "address": "822 Maple St, Ste 455",
    "city": "Metro City",
    "county": "Metro County",
    "state": "MO",
    "zip": "48788",
    "geo": {
      "lat": 31.620330297450696,
      "lng": -97.64650854055009
    },
    "phone": "(555) 142-3206",
    "website": "https://example.com",
    "machines": [
      "CloudTMS",
      "Magstim"
    ],
    "specialties": [
      "Anxiety",
      "Depression",
      "Chronic Pain",
      "OCD",
      "PTSD"
    ],
    "insurances": [
      "Medicare",
      "Cigna",
      "BlueCross",
      "Tricare"
    ],
    "logo_url": "https://placehold.co/200x200/png?text=M",
    "hero_image_url": "https://placehold.co/1200x600/e2e8f0/475569?text=Metro+City+TMS+&+Wellness+Center+3",
    "rating": 4.5,
    "review_count": 146,
    "verified": false,
    "type": "Medical Clinic",
    "doctors": [
      "Dr. John Doe",
      "Dr. Emily Smith"
    ],
    "description": "Leading mental health clinic in Metro County offering FDA-cleared TMS therapy for depression and OCD."
  }
]