[
  {
    "id": "sc-capitalcity-1",
    "name": "Dr. Alan Smith Psychiatry",
    "slug": "dr-alan-smith-psychiatry-capital-city",
    "address": "9761 Cedar St, Ste 133",
    "city": "Capital City",
    "county": "Main County",
    "state": "SC",
    "zip": "73512",
    "geo": {
      "lat": 36.19322164193214,
      "lng": -98.70687156755791
    },
    "phone": "(555) 809-4499",
    "website": "https://example.com",
    "machines": [
      "BrainsWay"
    ],
    "specialties": [
      "Depression",
      "PTSD",
      "OCD",
      "Anxiety"
    ],
    "insurances": [
      "UnitedHealthcare",
      "Aetna",
      "Tricare",
      "Medicaid",
      "BlueCross"
    ],
    "logo_url": "https://placehold.co/200x200/png?text=D",
    "hero_image_url": "https://placehold.co/1200x600/e2e8f0/475569?text=Dr.+Alan+Smith+Psychiatry",
    "rating": 4.8,
    "review_count": 342,
    "verified": false,
    "type": "Private Practice",
    "doctors": [
      "Dr. Jane Doe",
      "Dr. Robert Smith"
    ],
    "description": "A private psychiatric practice in Capital City, specializing in advanced neuromodulation and personalized mental health care."
  },
  {
    "id": "sc-capitalcity-2",
    "name": "Dr. Lisa Johnson Psychiatry",
    "slug": "dr-lisa-johnson-psychiatry-capital-city",
    "address": "7909 Cedar St, Ste 392",
    "city": "Capital City",
    "county": "Main County",
    "state": "SC",
    "zip": "68301",
    "geo": {
      "lat": 32.71667601752105,
      "lng": -92.63932172672921
    },
    "phone": "(555) 724-6409",
    "website": "https://example.com",
    "machines": [
      "Nexstim"
    ],
    "specialties": [
      "Bipolar",
      "Depression",
      "Chronic Pain"
    ],
    "insurances": [
      "Tricare",
      "Medicare",
      "BlueCross",
      "Medicaid",
      "UnitedHealthcare"
    ],
    "logo_url": "https://placehold.co/200x200/png?text=D",
    "hero_image_url": "https://placehold.co/1200x600/e2e8f0/475569?text=Dr.+Lisa+Johnson+Psychiatry",
    "rating": 4.6,
    "review_count": 422,
    "verified": true,
    "type": "Private Practice",
    "doctors": [
      "Dr. Jane Doe",
      "Dr. Robert Smith"
    ],
    "description": "A private psychiatric practice in Capital City, specializing in advanced neuromodulation and personalized mental health care."
  },
  {
    "id": "sc-capitalcity-3",
    "name": "Capital City TMS & Wellness Center 3",
    "slug": "capital-city-tms-&-wellness-center-3-capital-city",
    "address": "5807 Main St, Ste 189",
    "city": "Capital City",
    "county": "Main County",
    "state": "SC",
    "zip": "98093",
    "geo": {
      "lat": 32.43997855309404,
      "lng": -97.79898672478224
    },
    "phone": "(555) 912-7073",
    "website": "https://example.com",
    "machines": [
      "NeuroStar"
    ],
    "specialties": [
      "OCD",
      "Chronic Pain",
      "PTSD",
      "Anxiety"
    ],
    "insurances": [
      "Medicare",
      "Tricare",
      "Cigna"
    ],
    "logo_url": "https://placehold.co/200x200/png?text=C",
    "hero_image_url": "https://placehold.co/1200x600/e2e8f0/475569?text=Capital+City+TMS+&+Wellness+Center+3",
    "rating": 4.9,
    "review_count": 108,
    "verified": false,
    "type": "Medical Clinic",
    "doctors": [
      "Dr. John Doe",
      "Dr. Emily Smith"
    ],
    "description": "Leading mental health clinic in Main County offering FDA-cleared TMS therapy for depression and OCD."
  },
  {
    "id": "sc-metrocity-4",
    "name": "Dr. Michael Kim Psychiatry",
    "slug": "dr-michael-kim-psychiatry-metro-city",
    "address": "8357 Cedar St, Ste 372",
    "city": "Metro City",
    "county": "Metro County",
    "state": "SC",
    "zip": "65899",
    "geo": {
      "lat": 30.054387927100233,
      "lng": -90.73202448632168
    },
    "phone": "(555) 789-4287",
    "website": "https://example.com",
    "machines": [
      "BrainsWay"
    ],
    "specialties": [
      "OCD",
      "PTSD",
      "Bipolar"
    ],
    "insurances": [
      "BlueCross",
      "Cigna",
      "UnitedHealthcare"
    ],
    "logo_url": "https://placehold.co/200x200/png?text=D",
    "hero_image_url": "https://placehold.co/1200x600/e2e8f0/475569?text=Dr.+Michael+Kim+Psychiatry",
    "rating": 4.1,
    "review_count": 57,
    "verified": false,
    "type": "Private Practice",
    "doctors": [
      "Dr. John Doe",
      "Dr. Robert Smith"
    ],
    "description": "A private psychiatric practice in Metro City, specializing in advanced neuromodulation and personalized mental health care."
  },
  {
    "id": "sc-metrocity-5",
    "name": "Dr. Alan Garcia Psychiatry",
    "slug": "dr-alan-garcia-psychiatry-metro-city",
    "address": "7098 Maple St, Ste 373",
    "city": "Metro City",
    "county": "Metro County",
    "state": "SC",
    "zip": "18396",
    "geo": {
      "lat": 35.78152904343992,
      "lng": -96.35986646070631
    },
    "phone": "(555) 465-7915",
    "website": "https://example.com",
    "machines": [
      "BrainsWay"
    ],
    "specialties": [
      "PTSD",
      "Bipolar",
      "Anxiety",
      "Chronic Pain"
    ],
    "insurances": [
      "Tricare",
      "UnitedHealthcare",
      "Medicaid"
    ],
    "logo_url": "https://placehold.co/200x200/png?text=D",
    "hero_image_url": "https://placehold.co/1200x600/e2e8f0/475569?text=Dr.+Alan+Garcia+Psychiatry",
    "rating": 4.1,
    "review_count": 94,
    "verified": true,
    "type": "Private Practice",
    "doctors": [
      "Dr. John Doe",
      "Dr. Robert Smith"
    ],
    "description": "A private psychiatric practice in Metro City, specializing in advanced neuromodulation and personalized mental health care."
  },
  {
    "id": "sc-metrocity-6",
    "name": "Dr. Sarah Kim Psychiatry",
    "slug": "dr-sarah-kim-psychiatry-metro-city",
    "address": "9531 Maple St, Ste 372",
    "city": "Metro City",
    "county": "Metro County",
    "state": "SC",
    "zip": "54973",
    "geo": {
      "lat": 32.43795554794486,
      "lng": -99.23334530580253
    },
    "phone": "(555) 793-2839",
    "website": "https://example.com",
    "machines": [
      "CloudTMS",
      "NeuroStar"
    ],
    "specialties": [
      "Depression",
      "PTSD",
      "OCD",
      "Anxiety",
      "Bipolar"
    ],
    "insurances": [
      "Cigna",
      "Tricare",
      "Medicaid"
    ],
    "logo_url": "https://placehold.co/200x200/png?text=D",
    "hero_image_url": "https://placehold.co/1200x600/e2e8f0/475569?text=Dr.+Sarah+Kim+Psychiatry",
    "rating": 4.9,
    "review_count": 428,
    "verified": true,
    "type": "Private Practice",
    "doctors": [
      "Dr. John Doe",
      "Dr. Emily Smith"
    ],
    "description": "A private psychiatric practice in Metro City, specializing in advanced neuromodulation and personalized mental health care."
  },
  {
    "id": "sc-metrocity-7",
    "name": "Dr. Sarah Patel Psychiatry",
    "slug": "dr-sarah-patel-psychiatry-metro-city",
    "address": "1339 Cedar St, Ste 110",
    "city": "Metro City",
    "county": "Metro County",
    "state": "SC",
    "zip": "77317",
    "geo": {
      "lat": 39.756717709537455,
      "lng": -98.45886857752676
    },
    "phone": "(555) 799-9721",
    "website": "https://example.com",
    "machines": [
      "BrainsWay",
      "NeuroStar"
    ],
    "specialties": [
      "Chronic Pain",
      "Anxiety",
      "Depression",
      "OCD",
      "PTSD"
    ],
    "insurances": [
      "Medicaid",
      "Aetna",
      "Medicare"
    ],
    "logo_url": "https://placehold.co/200x200/png?text=D",
    "hero_image_url": "https://placehold.co/1200x600/e2e8f0/475569?text=Dr.+Sarah+Patel+Psychiatry",
    "rating": 4.5,
    "review_count": 449,
    "verified": true,
    "type": "Private Practice",
    "doctors": [
      "Dr. John Doe",
      "Dr. Emily Smith"
    ],
    "description": "A private psychiatric practice in Metro City, specializing in advanced neuromodulation and personalized mental health care."
  },
  {
    "id": "sc-metrocity-8",
    "name": "Metro City TMS & Wellness Center 5",
    "slug": "metro-city-tms-&-wellness-center-5-metro-city",
    "address": "8411 Cedar St, Ste 377",
    "city": "Metro City",
    "county": "Metro County",
    "state": "SC",
    "zip": "27441",
    "geo": {
      "lat": 30.887285205964076,
      "lng": -98.2123694461614
    },
    "phone": "(555) 950-5337",
    "website": "https://example.com",
    "machines": [
      "Nexstim",
      "CloudTMS"
    ],
    "specialties": [
      "Anxiety",
      "Bipolar",
      "Chronic Pain",
      "PTSD",
      "Depression"
    ],
    "insurances": [
      "BlueCross",
      "Aetna",
      "Medicare",
      "Tricare"
    ],
    "logo_url": "https://placehold.co/200x200/png?text=M",
    "hero_image_url": "https://placehold.co/1200x600/e2e8f0/475569?text=Metro+City+TMS+&+Wellness+Center+5",
    "rating": 5.0,
    "review_count": 102,
    "verified": false,
    "type": "Medical Clinic",
    "doctors": [
      "Dr. Jane Doe",
      "Dr. Robert Smith"
    ],
    "description": "Leading mental health clinic in Metro County offering FDA-cleared TMS therapy for depression and OCD."
  },
  {
    "id": "sc-metrocity-9",
    "name": "Dr. Alan Smith Psychiatry",
    "slug": "dr-alan-smith-psychiatry-metro-city",
    "address": "6370 Cedar St, Ste 448",
    "city": "Metro City",
    "county": "Metro County",
    "state": "SC",
    "zip": "57934",
    "geo": {
      "lat": 36.967209798294675,
      "lng": -98.44159968591974
    },
    "phone": "(555) 136-8478",
    "website": "https://example.com",
    "machines": [
      "Magstim",
      "CloudTMS"
    ],
    "specialties": [
      "Chronic Pain",
      "OCD",
      "PTSD",
      "Bipolar",
      "Depression"
    ],
    "insurances": [
      "Aetna",
      "BlueCross",
      "Tricare",
      "UnitedHealthcare",
      "Medicaid",
      "Cigna"
    ],
    "logo_url": "https://placehold.co/200x200/png?text=D",
    "hero_image_url": "https://placehold.co/1200x600/e2e8f0/475569?text=Dr.+Alan+Smith+Psychiatry",
    "rating": 4.9,
    "review_count": 435,
    "verified": true,
    "type": "Private Practice",
    "doctors": [
      "Dr. John Doe",
      "Dr. Robert Smith"
    ],
    "description": "A private psychiatric practice in Metro City, specializing in advanced neuromodulation and personalized mental health care."
  }
]