[
  {
    "id": "ga-capitalcity-1",
    "name": "Dr. Jennifer Smith Psychiatry",
    "slug": "dr-jennifer-smith-psychiatry-capital-city",
    "address": "4797 Cedar St, Ste 345",
    "city": "Capital City",
    "county": "Main County",
    "state": "GA",
    "zip": "70455",
    "geo": {
      "lat": 38.70872928900398,
      "lng": -95.66374471266528
    },
    "phone": "(555) 767-5349",
    "website": "https://example.com",
    "machines": [
      "NeuroStar"
    ],
    "specialties": [
      "PTSD",
      "Chronic Pain",
      "Depression",
      "Anxiety",
      "OCD"
    ],
    "insurances": [
      "BlueCross",
      "Medicaid",
      "UnitedHealthcare",
      "Medicare"
    ],
    "logo_url": "https://placehold.co/200x200/png?text=D",
    "hero_image_url": "https://placehold.co/1200x600/e2e8f0/475569?text=Dr.+Jennifer+Smith+Psychiatry",
    "rating": 4.3,
    "review_count": 305,
    "verified": false,
    "type": "Private Practice",
    "doctors": [
      "Dr. John Doe",
      "Dr. Robert Smith"
    ],
    "description": "A private psychiatric practice in Capital City, specializing in advanced neuromodulation and personalized mental health care."
  },
  {
    "id": "ga-capitalcity-2",
    "name": "Capital City TMS & Wellness Center 2",
    "slug": "capital-city-tms-&-wellness-center-2-capital-city",
    "address": "4680 Main St, Ste 147",
    "city": "Capital City",
    "county": "Main County",
    "state": "GA",
    "zip": "55140",
    "geo": {
      "lat": 39.321401257378625,
      "lng": -98.26465717536269
    },
    "phone": "(555) 512-5752",
    "website": "https://example.com",
    "machines": [
      "Nexstim"
    ],
    "specialties": [
      "PTSD",
      "Bipolar",
      "OCD",
      "Depression",
      "Chronic Pain"
    ],
    "insurances": [
      "BlueCross",
      "Medicaid",
      "Medicare"
    ],
    "logo_url": "https://placehold.co/200x200/png?text=C",
    "hero_image_url": "https://placehold.co/1200x600/e2e8f0/475569?text=Capital+City+TMS+&+Wellness+Center+2",
    "rating": 4.4,
    "review_count": 457,
    "verified": true,
    "type": "Medical Clinic",
    "doctors": [
      "Dr. Jane Doe",
      "Dr. Emily Smith"
    ],
    "description": "Leading mental health clinic in Main County offering FDA-cleared TMS therapy for depression and OCD."
  },
  {
    "id": "ga-capitalcity-3",
    "name": "Dr. Lisa Martinez Psychiatry",
    "slug": "dr-lisa-martinez-psychiatry-capital-city",
    "address": "5904 Cedar St, Ste 335",
    "city": "Capital City",
    "county": "Main County",
    "state": "GA",
    "zip": "21834",
    "geo": {
      "lat": 32.63065027324733,
      "lng": -97.69638385930303
    },
    "phone": "(555) 552-3880",
    "website": "https://example.com",
    "machines": [
      "MagVenture"
    ],
    "specialties": [
      "Anxiety",
      "Bipolar",
      "Chronic Pain",
      "PTSD",
      "Depression"
    ],
    "insurances": [
      "Cigna",
      "BlueCross",
      "UnitedHealthcare"
    ],
    "logo_url": "https://placehold.co/200x200/png?text=D",
    "hero_image_url": "https://placehold.co/1200x600/e2e8f0/475569?text=Dr.+Lisa+Martinez+Psychiatry",
    "rating": 4.1,
    "review_count": 60,
    "verified": true,
    "type": "Private Practice",
    "doctors": [
      "Dr. John Doe",
      "Dr. Emily Smith"
    ],
    "description": "A private psychiatric practice in Capital City, specializing in advanced neuromodulation and personalized mental health care."
  },
  {
    "id": "ga-capitalcity-4",
    "name": "Dr. Jennifer Lee Psychiatry",
    "slug": "dr-jennifer-lee-psychiatry-capital-city",
    "address": "5165 Cedar St, Ste 282",
    "city": "Capital City",
    "county": "Main County",
    "state": "GA",
    "zip": "46900",
    "geo": {
      "lat": 32.94168470354765,
      "lng": -90.0569206060399
    },
    "phone": "(555) 427-9135",
    "website": "https://example.com",
    "machines": [
      "CloudTMS",
      "NeuroStar"
    ],
    "specialties": [
      "Anxiety",
      "Bipolar",
      "Depression",
      "PTSD",
      "OCD"
    ],
    "insurances": [
      "BlueCross",
      "Cigna",
      "Medicare",
      "Medicaid",
      "Aetna",
      "Tricare"
    ],
    "logo_url": "https://placehold.co/200x200/png?text=D",
    "hero_image_url": "https://placehold.co/1200x600/e2e8f0/475569?text=Dr.+Jennifer+Lee+Psychiatry",
    "rating": 4.3,
    "review_count": 247,
    "verified": true,
    "type": "Private Practice",
    "doctors": [
      "Dr. John Doe",
      "Dr. Emily Smith"
    ],
    "description": "A private psychiatric practice in Capital City, specializing in advanced neuromodulation and personalized mental health care."
  },
  {
    "id": "ga-metrocity-5",
    "name": "Metro City TMS & Wellness Center 1",
    "slug": "metro-city-tms-&-wellness-center-1-metro-city",
    "address": "7341 Maple St, Ste 222",
    "city": "Metro City",
    "county": "Metro County",
    "state": "GA",
    "zip": "37000",
    "geo": {
      "lat": 32.84288165629757,
      "lng": -98.45010872696247
    },
    "phone": "(555) 632-4129",
    "website": "https://example.com",
    "machines": [
      "Magstim",
      "MagVenture"
    ],
    "specialties": [
      "Bipolar",
      "OCD",
      "PTSD",
      "Anxiety",
      "Depression"
    ],
    "insurances": [
      "Tricare",
      "Medicaid",
      "UnitedHealthcare",
      "Aetna",
      "BlueCross"
    ],
    "logo_url": "https://placehold.co/200x200/png?text=M",
    "hero_image_url": "https://placehold.co/1200x600/e2e8f0/475569?text=Metro+City+TMS+&+Wellness+Center+1",
    "rating": 4.2,
    "review_count": 375,
    "verified": false,
    "type": "Medical Clinic",
    "doctors": [
      "Dr. Jane Doe",
      "Dr. Emily Smith"
    ],
    "description": "Leading mental health clinic in Metro County offering FDA-cleared TMS therapy for depression and OCD."
  },
  {
    "id": "ga-metrocity-6",
    "name": "Metro City TMS & Wellness Center 2",
    "slug": "metro-city-tms-&-wellness-center-2-metro-city",
    "address": "773 Cedar St, Ste 457",
    "city": "Metro City",
    "county": "Metro County",
    "state": "GA",
    "zip": "93975",
    "geo": {
      "lat": 34.826109862106186,
      "lng": -98.87373362890662
    },
    "phone": "(555) 251-9081",
    "website": "https://example.com",
    "machines": [
      "NeuroStar",
      "Magstim"
    ],
    "specialties": [
      "Depression",
      "Anxiety",
      "PTSD",
      "OCD",
      "Chronic Pain"
    ],
    "insurances": [
      "Tricare",
      "Aetna",
      "UnitedHealthcare",
      "Medicaid"
    ],
    "logo_url": "https://placehold.co/200x200/png?text=M",
    "hero_image_url": "https://placehold.co/1200x600/e2e8f0/475569?text=Metro+City+TMS+&+Wellness+Center+2",
    "rating": 4.8,
    "review_count": 167,
    "verified": true,
    "type": "Medical Clinic",
    "doctors": [
      "Dr. Jane Doe",
      "Dr. Emily Smith"
    ],
    "description": "Leading mental health clinic in Metro County offering FDA-cleared TMS therapy for depression and OCD."
  },
  {
    "id": "ga-metrocity-7",
    "name": "Dr. Alan Johnson Psychiatry",
    "slug": "dr-alan-johnson-psychiatry-metro-city",
    "address": "3896 Maple St, Ste 380",
    "city": "Metro City",
    "county": "Metro County",
    "state": "GA",
    "zip": "84601",
    "geo": {
      "lat": 31.75136669491926,
      "lng": -90.01489810012781
    },
    "phone": "(555) 396-3203",
    "website": "https://example.com",
    "machines": [
      "CloudTMS",
      "Magstim"
    ],
    "specialties": [
      "PTSD",
      "Depression",
      "Chronic Pain",
      "Bipolar",
      "Anxiety"
    ],
    "insurances": [
      "BlueCross",
      "Cigna",
      "Medicare",
      "Aetna",
      "UnitedHealthcare"
    ],
    "logo_url": "https://placehold.co/200x200/png?text=D",
    "hero_image_url": "https://placehold.co/1200x600/e2e8f0/475569?text=Dr.+Alan+Johnson+Psychiatry",
    "rating": 4.8,
    "review_count": 63,
    "verified": true,
    "type": "Private Practice",
    "doctors": [
      "Dr. John Doe",
      "Dr. Emily Smith"
    ],
    "description": "A private psychiatric practice in Metro City, specializing in advanced neuromodulation and personalized mental health care."
  },
  {
    "id": "ga-metrocity-8",
    "name": "Metro City TMS & Wellness Center 4",
    "slug": "metro-city-tms-&-wellness-center-4-metro-city",
    "address": "7969 Maple St, Ste 378",
    "city": "Metro City",
    "county": "Metro County",
    "state": "GA",
    "zip": "75726",
    "geo": {
      "lat": 39.444765102815055,
      "lng": -97.50566705454007
    },
    "phone": "(555) 132-1030",
    "website": "https://example.com",
    "machines": [
      "MagVenture"
    ],
    "specialties": [
      "Bipolar",
      "OCD",
      "Depression",
      "Chronic Pain"
    ],
    "insurances": [
      "Cigna",
      "UnitedHealthcare",
      "BlueCross",
      "Medicare",
      "Aetna",
      "Tricare"
    ],
    "logo_url": "https://placehold.co/200x200/png?text=M",
    "hero_image_url": "https://placehold.co/1200x600/e2e8f0/475569?text=Metro+City+TMS+&+Wellness+Center+4",
    "rating": 4.9,
    "review_count": 287,
    "verified": true,
    "type": "Medical Clinic",
    "doctors": [
      "Dr. Jane Doe",
      "Dr. Robert Smith"
    ],
    "description": "Leading mental health clinic in Metro County offering FDA-cleared TMS therapy for depression and OCD."
  },
  {
    "id": "ga-metrocity-9",
    "name": "Metro City TMS & Wellness Center 5",
    "slug": "metro-city-tms-&-wellness-center-5-metro-city",
    "address": "7462 Maple St, Ste 157",
    "city": "Metro City",
    "county": "Metro County",
    "state": "GA",
    "zip": "65319",
    "geo": {
      "lat": 37.3668009033403,
      "lng": -93.85682998603517
    },
    "phone": "(555) 438-6845",
    "website": "https://example.com",
    "machines": [
      "NeuroStar"
    ],
    "specialties": [
      "PTSD",
      "Anxiety",
      "Depression"
    ],
    "insurances": [
      "Tricare",
      "Cigna",
      "UnitedHealthcare",
      "Medicare",
      "BlueCross",
      "Medicaid"
    ],
    "logo_url": "https://placehold.co/200x200/png?text=M",
    "hero_image_url": "https://placehold.co/1200x600/e2e8f0/475569?text=Metro+City+TMS+&+Wellness+Center+5",
    "rating": 4.0,
    "review_count": 376,
    "verified": false,
    "type": "Medical Clinic",
    "doctors": [
      "Dr. Jane Doe",
      "Dr. Robert Smith"
    ],
    "description": "Leading mental health clinic in Metro County offering FDA-cleared TMS therapy for depression and OCD."
  },
  {
    "id": "ga-metrocity-10",
    "name": "Dr. Jennifer Garcia Psychiatry",
    "slug": "dr-jennifer-garcia-psychiatry-metro-city",
    "address": "2328 Main St, Ste 416",
    "city": "Metro City",
    "county": "Metro County",
    "state": "GA",
    "zip": "40657",
    "geo": {
      "lat": 39.92359935521617,
      "lng": -90.12410703949035
    },
    "phone": "(555) 895-1416",
    "website": "https://example.com",
    "machines": [
      "BrainsWay",
      "CloudTMS"
    ],
    "specialties": [
      "Depression",
      "PTSD",
      "Anxiety"
    ],
    "insurances": [
      "Cigna",
      "Tricare",
      "BlueCross",
      "UnitedHealthcare",
      "Medicare",
      "Medicaid"
    ],
    "logo_url": "https://placehold.co/200x200/png?text=D",
    "hero_image_url": "https://placehold.co/1200x600/e2e8f0/475569?text=Dr.+Jennifer+Garcia+Psychiatry",
    "rating": 4.1,
    "review_count": 135,
    "verified": false,
    "type": "Private Practice",
    "doctors": [
      "Dr. Jane Doe",
      "Dr. Emily Smith"
    ],
    "description": "A private psychiatric practice in Metro City, specializing in advanced neuromodulation and personalized mental health care."
  }
]