[
  {
    "id": "wy-capitalcity-1",
    "name": "Dr. Sarah Johnson Psychiatry",
    "slug": "dr-sarah-johnson-psychiatry-capital-city",
    "address": "7274 Maple St, Ste 197",
    "city": "Capital City",
    "county": "Main County",
    "state": "WY",
    "zip": "99709",
    "geo": {
      "lat": 32.55708036145589,
      "lng": -91.62533663791115
    },
    "phone": "(555) 921-6087",
    "website": "https://example.com",
    "machines": [
      "CloudTMS"
    ],
    "specialties": [
      "PTSD",
      "Depression",
      "Chronic Pain"
    ],
    "insurances": [
      "Cigna",
      "Tricare",
      "UnitedHealthcare",
      "Medicaid",
      "BlueCross",
      "Aetna"
    ],
    "logo_url": "https://placehold.co/200x200/png?text=D",
    "hero_image_url": "https://placehold.co/1200x600/e2e8f0/475569?text=Dr.+Sarah+Johnson+Psychiatry",
    "rating": 4.3,
    "review_count": 41,
    "verified": true,
    "type": "Private Practice",
    "doctors": [
      "Dr. John Doe",
      "Dr. Emily Smith"
    ],
    "description": "A private psychiatric practice in Capital City, specializing in advanced neuromodulation and personalized mental health care."
  },
  {
    "id": "wy-capitalcity-2",
    "name": "Capital City TMS & Wellness Center 2",
    "slug": "capital-city-tms-&-wellness-center-2-capital-city",
    "address": "9134 Cedar St, Ste 251",
    "city": "Capital City",
    "county": "Main County",
    "state": "WY",
    "zip": "40579",
    "geo": {
      "lat": 35.22450988228818,
      "lng": -91.7581784696655
    },
    "phone": "(555) 948-2599",
    "website": "https://example.com",
    "machines": [
      "BrainsWay"
    ],
    "specialties": [
      "Chronic Pain",
      "OCD",
      "PTSD"
    ],
    "insurances": [
      "Medicaid",
      "Tricare",
      "Cigna",
      "BlueCross"
    ],
    "logo_url": "https://placehold.co/200x200/png?text=C",
    "hero_image_url": "https://placehold.co/1200x600/e2e8f0/475569?text=Capital+City+TMS+&+Wellness+Center+2",
    "rating": 4.9,
    "review_count": 286,
    "verified": true,
    "type": "Medical Clinic",
    "doctors": [
      "Dr. Jane Doe",
      "Dr. Robert Smith"
    ],
    "description": "Leading mental health clinic in Main County offering FDA-cleared TMS therapy for depression and OCD."
  },
  {
    "id": "wy-capitalcity-3",
    "name": "Capital City TMS & Wellness Center 3",
    "slug": "capital-city-tms-&-wellness-center-3-capital-city",
    "address": "3265 Oak St, Ste 270",
    "city": "Capital City",
    "county": "Main County",
    "state": "WY",
    "zip": "71071",
    "geo": {
      "lat": 32.27773272302055,
      "lng": -98.3981234572133
    },
    "phone": "(555) 971-4633",
    "website": "https://example.com",
    "machines": [
      "MagVenture"
    ],
    "specialties": [
      "OCD",
      "Anxiety",
      "Chronic Pain",
      "Depression"
    ],
    "insurances": [
      "Medicaid",
      "BlueCross",
      "Tricare",
      "Aetna",
      "Medicare"
    ],
    "logo_url": "https://placehold.co/200x200/png?text=C",
    "hero_image_url": "https://placehold.co/1200x600/e2e8f0/475569?text=Capital+City+TMS+&+Wellness+Center+3",
    "rating": 4.8,
    "review_count": 309,
    "verified": true,
    "type": "Medical Clinic",
    "doctors": [
      "Dr. Jane Doe",
      "Dr. Robert Smith"
    ],
    "description": "Leading mental health clinic in Main County offering FDA-cleared TMS therapy for depression and OCD."
  },
  {
    "id": "wy-capitalcity-4",
    "name": "Capital City TMS & Wellness Center 4",
    "slug": "capital-city-tms-&-wellness-center-4-capital-city",
    "address": "5257 Cedar St, Ste 405",
    "city": "Capital City",
    "county": "Main County",
    "state": "WY",
    "zip": "70603",
    "geo": {
      "lat": 39.03039385850033,
      "lng": -90.28465368593726
    },
    "phone": "(555) 590-2210",
    "website": "https://example.com",
    "machines": [
      "MagVenture",
      "CloudTMS"
    ],
    "specialties": [
      "Anxiety",
      "Bipolar",
      "Depression",
      "OCD"
    ],
    "insurances": [
      "Medicaid",
      "Tricare",
      "UnitedHealthcare",
      "BlueCross"
    ],
    "logo_url": "https://placehold.co/200x200/png?text=C",
    "hero_image_url": "https://placehold.co/1200x600/e2e8f0/475569?text=Capital+City+TMS+&+Wellness+Center+4",
    "rating": 4.2,
    "review_count": 38,
    "verified": false,
    "type": "Medical Clinic",
    "doctors": [
      "Dr. John Doe",
      "Dr. Robert Smith"
    ],
    "description": "Leading mental health clinic in Main County offering FDA-cleared TMS therapy for depression and OCD."
  },
  {
    "id": "wy-capitalcity-5",
    "name": "Capital City TMS & Wellness Center 5",
    "slug": "capital-city-tms-&-wellness-center-5-capital-city",
    "address": "1011 Oak St, Ste 363",
    "city": "Capital City",
    "county": "Main County",
    "state": "WY",
    "zip": "76932",
    "geo": {
      "lat": 33.60812085264537,
      "lng": -97.47107045032408
    },
    "phone": "(555) 648-2785",
    "website": "https://example.com",
    "machines": [
      "BrainsWay"
    ],
    "specialties": [
      "Chronic Pain",
      "OCD",
      "Anxiety"
    ],
    "insurances": [
      "Aetna",
      "Cigna",
      "Medicare",
      "Tricare",
      "Medicaid",
      "UnitedHealthcare"
    ],
    "logo_url": "https://placehold.co/200x200/png?text=C",
    "hero_image_url": "https://placehold.co/1200x600/e2e8f0/475569?text=Capital+City+TMS+&+Wellness+Center+5",
    "rating": 4.4,
    "review_count": 34,
    "verified": false,
    "type": "Medical Clinic",
    "doctors": [
      "Dr. John Doe",
      "Dr. Emily Smith"
    ],
    "description": "Leading mental health clinic in Main County offering FDA-cleared TMS therapy for depression and OCD."
  },
  {
    "id": "wy-capitalcity-6",
    "name": "Capital City TMS & Wellness Center 6",
    "slug": "capital-city-tms-&-wellness-center-6-capital-city",
    "address": "4340 Maple St, Ste 175",
    "city": "Capital City",
    "county": "Main County",
    "state": "WY",
    "zip": "48072",
    "geo": {
      "lat": 33.54001790325591,
      "lng": -94.41566747446034
    },
    "phone": "(555) 431-6225",
    "website": "https://example.com",
    "machines": [
      "MagVenture"
    ],
    "specialties": [
      "Chronic Pain",
      "OCD",
      "PTSD",
      "Bipolar",
      "Depression"
    ],
    "insurances": [
      "Aetna",
      "Medicare",
      "BlueCross",
      "Cigna",
      "UnitedHealthcare"
    ],
    "logo_url": "https://placehold.co/200x200/png?text=C",
    "hero_image_url": "https://placehold.co/1200x600/e2e8f0/475569?text=Capital+City+TMS+&+Wellness+Center+6",
    "rating": 4.1,
    "review_count": 277,
    "verified": true,
    "type": "Medical Clinic",
    "doctors": [
      "Dr. John Doe",
      "Dr. Robert Smith"
    ],
    "description": "Leading mental health clinic in Main County offering FDA-cleared TMS therapy for depression and OCD."
  },
  {
    "id": "wy-metrocity-7",
    "name": "Dr. Lisa Patel Psychiatry",
    "slug": "dr-lisa-patel-psychiatry-metro-city",
    "address": "338 Cedar St, Ste 395",
    "city": "Metro City",
    "county": "Metro County",
    "state": "WY",
    "zip": "40376",
    "geo": {
      "lat": 33.38053437541906,
      "lng": -98.38657808480784
    },
    "phone": "(555) 723-6394",
    "website": "https://example.com",
    "machines": [
      "BrainsWay"
    ],
    "specialties": [
      "OCD",
      "PTSD",
      "Chronic Pain",
      "Anxiety",
      "Depression"
    ],
    "insurances": [
      "Cigna",
      "BlueCross",
      "Tricare"
    ],
    "logo_url": "https://placehold.co/200x200/png?text=D",
    "hero_image_url": "https://placehold.co/1200x600/e2e8f0/475569?text=Dr.+Lisa+Patel+Psychiatry",
    "rating": 4.8,
    "review_count": 245,
    "verified": false,
    "type": "Private Practice",
    "doctors": [
      "Dr. Jane Doe",
      "Dr. Emily Smith"
    ],
    "description": "A private psychiatric practice in Metro City, specializing in advanced neuromodulation and personalized mental health care."
  },
  {
    "id": "wy-metrocity-8",
    "name": "Dr. Sarah Lee Psychiatry",
    "slug": "dr-sarah-lee-psychiatry-metro-city",
    "address": "7095 Main St, Ste 145",
    "city": "Metro City",
    "county": "Metro County",
    "state": "WY",
    "zip": "37926",
    "geo": {
      "lat": 30.499422710720697,
      "lng": -97.99681053421033
    },
    "phone": "(555) 129-6391",
    "website": "https://example.com",
    "machines": [
      "BrainsWay"
    ],
    "specialties": [
      "Chronic Pain",
      "OCD",
      "Bipolar",
      "Anxiety",
      "Depression"
    ],
    "insurances": [
      "Aetna",
      "UnitedHealthcare",
      "Medicaid"
    ],
    "logo_url": "https://placehold.co/200x200/png?text=D",
    "hero_image_url": "https://placehold.co/1200x600/e2e8f0/475569?text=Dr.+Sarah+Lee+Psychiatry",
    "rating": 4.3,
    "review_count": 358,
    "verified": true,
    "type": "Private Practice",
    "doctors": [
      "Dr. Jane Doe",
      "Dr. Robert Smith"
    ],
    "description": "A private psychiatric practice in Metro City, specializing in advanced neuromodulation and personalized mental health care."
  },
  {
    "id": "wy-metrocity-9",
    "name": "Dr. Michael Garcia Psychiatry",
    "slug": "dr-michael-garcia-psychiatry-metro-city",
    "address": "8085 Oak St, Ste 336",
    "city": "Metro City",
    "county": "Metro County",
    "state": "WY",
    "zip": "85041",
    "geo": {
      "lat": 34.5500504035526,
      "lng": -94.69362246745611
    },
    "phone": "(555) 520-9257",
    "website": "https://example.com",
    "machines": [
      "BrainsWay"
    ],
    "specialties": [
      "Chronic Pain",
      "OCD",
      "PTSD"
    ],
    "insurances": [
      "Cigna",
      "BlueCross",
      "Tricare",
      "Aetna",
      "Medicare"
    ],
    "logo_url": "https://placehold.co/200x200/png?text=D",
    "hero_image_url": "https://placehold.co/1200x600/e2e8f0/475569?text=Dr.+Michael+Garcia+Psychiatry",
    "rating": 4.3,
    "review_count": 248,
    "verified": true,
    "type": "Private Practice",
    "doctors": [
      "Dr. Jane Doe",
      "Dr. Emily Smith"
    ],
    "description": "A private psychiatric practice in Metro City, specializing in advanced neuromodulation and personalized mental health care."
  },
  {
    "id": "wy-metrocity-10",
    "name": "Metro City TMS & Wellness Center 4",
    "slug": "metro-city-tms-&-wellness-center-4-metro-city",
    "address": "9877 Main St, Ste 211",
    "city": "Metro City",
    "county": "Metro County",
    "state": "WY",
    "zip": "65268",
    "geo": {
      "lat": 36.41152005398109,
      "lng": -99.1266821554465
    },
    "phone": "(555) 171-6744",
    "website": "https://example.com",
    "machines": [
      "BrainsWay"
    ],
    "specialties": [
      "PTSD",
      "Depression",
      "OCD",
      "Bipolar",
      "Chronic Pain"
    ],
    "insurances": [
      "UnitedHealthcare",
      "Tricare",
      "Medicaid",
      "Aetna"
    ],
    "logo_url": "https://placehold.co/200x200/png?text=M",
    "hero_image_url": "https://placehold.co/1200x600/e2e8f0/475569?text=Metro+City+TMS+&+Wellness+Center+4",
    "rating": 4.7,
    "review_count": 439,
    "verified": false,
    "type": "Medical Clinic",
    "doctors": [
      "Dr. Jane Doe",
      "Dr. Emily Smith"
    ],
    "description": "Leading mental health clinic in Metro County offering FDA-cleared TMS therapy for depression and OCD."
  },
  {
    "id": "wy-metrocity-11",
    "name": "Metro City TMS & Wellness Center 5",
    "slug": "metro-city-tms-&-wellness-center-5-metro-city",
    "address": "3886 Maple St, Ste 282",
    "city": "Metro City",
    "county": "Metro County",
    "state": "WY",
    "zip": "59196",
    "geo": {
      "lat": 36.72103401508318,
      "lng": -94.41572684586212
    },
    "phone": "(555) 986-6368",
    "website": "https://example.com",
    "machines": [
      "CloudTMS",
      "NeuroStar"
    ],
    "specialties": [
      "Depression",
      "Chronic Pain",
      "OCD",
      "Bipolar",
      "PTSD"
    ],
    "insurances": [
      "Medicaid",
      "Aetna",
      "Cigna"
    ],
    "logo_url": "https://placehold.co/200x200/png?text=M",
    "hero_image_url": "https://placehold.co/1200x600/e2e8f0/475569?text=Metro+City+TMS+&+Wellness+Center+5",
    "rating": 4.2,
    "review_count": 302,
    "verified": true,
    "type": "Medical Clinic",
    "doctors": [
      "Dr. Jane Doe",
      "Dr. Robert Smith"
    ],
    "description": "Leading mental health clinic in Metro County offering FDA-cleared TMS therapy for depression and OCD."
  },
  {
    "id": "wy-metrocity-12",
    "name": "Dr. David Johnson Psychiatry",
    "slug": "dr-david-johnson-psychiatry-metro-city",
    "address": "8161 Oak St, Ste 458",
    "city": "Metro City",
    "county": "Metro County",
    "state": "WY",
    "zip": "94382",
    "geo": {
      "lat": 37.51913336617732,
      "lng": -95.91707716586252
    },
    "phone": "(555) 254-4933",
    "website": "https://example.com",
    "machines": [
      "Magstim"
    ],
    "specialties": [
      "Depression",
      "PTSD",
      "Bipolar",
      "Anxiety"
    ],
    "insurances": [
      "Medicaid",
      "Aetna",
      "Medicare",
      "BlueCross",
      "UnitedHealthcare"
    ],
    "logo_url": "https://placehold.co/200x200/png?text=D",
    "hero_image_url": "https://placehold.co/1200x600/e2e8f0/475569?text=Dr.+David+Johnson+Psychiatry",
    "rating": 4.8,
    "review_count": 407,
    "verified": true,
    "type": "Private Practice",
    "doctors": [
      "Dr. John Doe",
      "Dr. Emily Smith"
    ],
    "description": "A private psychiatric practice in Metro City, specializing in advanced neuromodulation and personalized mental health care."
  }
]