[
  {
    "id": "hi-capitalcity-1",
    "name": "Capital City TMS & Wellness Center 1",
    "slug": "capital-city-tms-&-wellness-center-1-capital-city",
    "address": "4135 Maple St, Ste 267",
    "city": "Capital City",
    "county": "Main County",
    "state": "HI",
    "zip": "10731",
    "geo": {
      "lat": 36.240584362709654,
      "lng": -93.24392536579829
    },
    "phone": "(555) 770-7472",
    "website": "https://example.com",
    "machines": [
      "BrainsWay",
      "Magstim"
    ],
    "specialties": [
      "PTSD",
      "Bipolar",
      "Depression"
    ],
    "insurances": [
      "Aetna",
      "UnitedHealthcare",
      "Tricare"
    ],
    "logo_url": "https://placehold.co/200x200/png?text=C",
    "hero_image_url": "https://placehold.co/1200x600/e2e8f0/475569?text=Capital+City+TMS+&+Wellness+Center+1",
    "rating": 4.5,
    "review_count": 191,
    "verified": true,
    "type": "Medical Clinic",
    "doctors": [
      "Dr. John Doe",
      "Dr. Emily Smith"
    ],
    "description": "Leading mental health clinic in Main County offering FDA-cleared TMS therapy for depression and OCD."
  },
  {
    "id": "hi-capitalcity-2",
    "name": "Dr. Sarah Kim Psychiatry",
    "slug": "dr-sarah-kim-psychiatry-capital-city",
    "address": "768 Cedar St, Ste 130",
    "city": "Capital City",
    "county": "Main County",
    "state": "HI",
    "zip": "91023",
    "geo": {
      "lat": 33.766955990091766,
      "lng": -99.63967803180623
    },
    "phone": "(555) 537-3833",
    "website": "https://example.com",
    "machines": [
      "Nexstim"
    ],
    "specialties": [
      "PTSD",
      "OCD",
      "Depression",
      "Chronic Pain",
      "Bipolar"
    ],
    "insurances": [
      "Cigna",
      "Medicaid",
      "Tricare",
      "BlueCross",
      "Aetna",
      "UnitedHealthcare"
    ],
    "logo_url": "https://placehold.co/200x200/png?text=D",
    "hero_image_url": "https://placehold.co/1200x600/e2e8f0/475569?text=Dr.+Sarah+Kim+Psychiatry",
    "rating": 4.4,
    "review_count": 487,
    "verified": true,
    "type": "Private Practice",
    "doctors": [
      "Dr. Jane Doe",
      "Dr. Emily Smith"
    ],
    "description": "A private psychiatric practice in Capital City, specializing in advanced neuromodulation and personalized mental health care."
  },
  {
    "id": "hi-capitalcity-3",
    "name": "Capital City TMS & Wellness Center 3",
    "slug": "capital-city-tms-&-wellness-center-3-capital-city",
    "address": "284 Main St, Ste 421",
    "city": "Capital City",
    "county": "Main County",
    "state": "HI",
    "zip": "27720",
    "geo": {
      "lat": 35.78448660727598,
      "lng": -92.84881279783028
    },
    "phone": "(555) 376-9953",
    "website": "https://example.com",
    "machines": [
      "Magstim",
      "Nexstim"
    ],
    "specialties": [
      "Bipolar",
      "Depression",
      "PTSD",
      "Anxiety",
      "Chronic Pain"
    ],
    "insurances": [
      "BlueCross",
      "Cigna",
      "Tricare"
    ],
    "logo_url": "https://placehold.co/200x200/png?text=C",
    "hero_image_url": "https://placehold.co/1200x600/e2e8f0/475569?text=Capital+City+TMS+&+Wellness+Center+3",
    "rating": 4.7,
    "review_count": 205,
    "verified": true,
    "type": "Medical Clinic",
    "doctors": [
      "Dr. Jane Doe",
      "Dr. Emily Smith"
    ],
    "description": "Leading mental health clinic in Main County offering FDA-cleared TMS therapy for depression and OCD."
  },
  {
    "id": "hi-capitalcity-4",
    "name": "Dr. Sarah Patel Psychiatry",
    "slug": "dr-sarah-patel-psychiatry-capital-city",
    "address": "817 Cedar St, Ste 143",
    "city": "Capital City",
    "county": "Main County",
    "state": "HI",
    "zip": "51471",
    "geo": {
      "lat": 32.040208608633705,
      "lng": -93.64395586641183
    },
    "phone": "(555) 137-1027",
    "website": "https://example.com",
    "machines": [
      "MagVenture",
      "BrainsWay"
    ],
    "specialties": [
      "Anxiety",
      "Depression",
      "Bipolar",
      "PTSD",
      "Chronic Pain"
    ],
    "insurances": [
      "UnitedHealthcare",
      "Aetna",
      "Medicaid",
      "Tricare"
    ],
    "logo_url": "https://placehold.co/200x200/png?text=D",
    "hero_image_url": "https://placehold.co/1200x600/e2e8f0/475569?text=Dr.+Sarah+Patel+Psychiatry",
    "rating": 4.0,
    "review_count": 385,
    "verified": false,
    "type": "Private Practice",
    "doctors": [
      "Dr. John Doe",
      "Dr. Robert Smith"
    ],
    "description": "A private psychiatric practice in Capital City, specializing in advanced neuromodulation and personalized mental health care."
  },
  {
    "id": "hi-capitalcity-5",
    "name": "Capital City TMS & Wellness Center 5",
    "slug": "capital-city-tms-&-wellness-center-5-capital-city",
    "address": "2109 Oak St, Ste 237",
    "city": "Capital City",
    "county": "Main County",
    "state": "HI",
    "zip": "52262",
    "geo": {
      "lat": 37.06176317596897,
      "lng": -92.94674537272223
    },
    "phone": "(555) 819-8279",
    "website": "https://example.com",
    "machines": [
      "Nexstim"
    ],
    "specialties": [
      "Depression",
      "PTSD",
      "Anxiety"
    ],
    "insurances": [
      "Aetna",
      "UnitedHealthcare",
      "BlueCross"
    ],
    "logo_url": "https://placehold.co/200x200/png?text=C",
    "hero_image_url": "https://placehold.co/1200x600/e2e8f0/475569?text=Capital+City+TMS+&+Wellness+Center+5",
    "rating": 4.3,
    "review_count": 76,
    "verified": true,
    "type": "Medical Clinic",
    "doctors": [
      "Dr. Jane Doe",
      "Dr. Robert Smith"
    ],
    "description": "Leading mental health clinic in Main County offering FDA-cleared TMS therapy for depression and OCD."
  },
  {
    "id": "hi-metrocity-6",
    "name": "Metro City TMS & Wellness Center 1",
    "slug": "metro-city-tms-&-wellness-center-1-metro-city",
    "address": "3219 Cedar St, Ste 371",
    "city": "Metro City",
    "county": "Metro County",
    "state": "HI",
    "zip": "92302",
    "geo": {
      "lat": 39.99899452683667,
      "lng": -95.37977662722683
    },
    "phone": "(555) 527-4663",
    "website": "https://example.com",
    "machines": [
      "BrainsWay"
    ],
    "specialties": [
      "Chronic Pain",
      "PTSD",
      "Bipolar"
    ],
    "insurances": [
      "BlueCross",
      "Medicaid",
      "Cigna",
      "Medicare",
      "Aetna",
      "UnitedHealthcare"
    ],
    "logo_url": "https://placehold.co/200x200/png?text=M",
    "hero_image_url": "https://placehold.co/1200x600/e2e8f0/475569?text=Metro+City+TMS+&+Wellness+Center+1",
    "rating": 4.9,
    "review_count": 449,
    "verified": true,
    "type": "Medical Clinic",
    "doctors": [
      "Dr. Jane Doe",
      "Dr. Robert Smith"
    ],
    "description": "Leading mental health clinic in Metro County offering FDA-cleared TMS therapy for depression and OCD."
  },
  {
    "id": "hi-metrocity-7",
    "name": "Dr. Lisa Kim Psychiatry",
    "slug": "dr-lisa-kim-psychiatry-metro-city",
    "address": "1214 Maple St, Ste 159",
    "city": "Metro City",
    "county": "Metro County",
    "state": "HI",
    "zip": "23520",
    "geo": {
      "lat": 33.520667317181065,
      "lng": -97.28813088738713
    },
    "phone": "(555) 575-1156",
    "website": "https://example.com",
    "machines": [
      "BrainsWay"
    ],
    "specialties": [
      "Anxiety",
      "Depression",
      "PTSD",
      "Bipolar",
      "OCD"
    ],
    "insurances": [
      "UnitedHealthcare",
      "Medicaid",
      "Cigna",
      "BlueCross",
      "Aetna"
    ],
    "logo_url": "https://placehold.co/200x200/png?text=D",
    "hero_image_url": "https://placehold.co/1200x600/e2e8f0/475569?text=Dr.+Lisa+Kim+Psychiatry",
    "rating": 4.9,
    "review_count": 386,
    "verified": false,
    "type": "Private Practice",
    "doctors": [
      "Dr. John Doe",
      "Dr. Robert Smith"
    ],
    "description": "A private psychiatric practice in Metro City, specializing in advanced neuromodulation and personalized mental health care."
  },
  {
    "id": "hi-metrocity-8",
    "name": "Metro City TMS & Wellness Center 3",
    "slug": "metro-city-tms-&-wellness-center-3-metro-city",
    "address": "3384 Maple St, Ste 154",
    "city": "Metro City",
    "county": "Metro County",
    "state": "HI",
    "zip": "53006",
    "geo": {
      "lat": 38.349870404500344,
      "lng": -97.19427549504857
    },
    "phone": "(555) 185-3548",
    "website": "https://example.com",
    "machines": [
      "Magstim"
    ],
    "specialties": [
      "Anxiety",
      "Chronic Pain",
      "Depression",
      "PTSD"
    ],
    "insurances": [
      "Medicare",
      "Cigna",
      "UnitedHealthcare",
      "Tricare",
      "Aetna"
    ],
    "logo_url": "https://placehold.co/200x200/png?text=M",
    "hero_image_url": "https://placehold.co/1200x600/e2e8f0/475569?text=Metro+City+TMS+&+Wellness+Center+3",
    "rating": 4.9,
    "review_count": 107,
    "verified": true,
    "type": "Medical Clinic",
    "doctors": [
      "Dr. John Doe",
      "Dr. Emily Smith"
    ],
    "description": "Leading mental health clinic in Metro County offering FDA-cleared TMS therapy for depression and OCD."
  }
]