[
  {
    "id": "az-capitalcity-1",
    "name": "Dr. David Smith Psychiatry",
    "slug": "dr-david-smith-psychiatry-capital-city",
    "address": "8092 Oak St, Ste 410",
    "city": "Capital City",
    "county": "Main County",
    "state": "AZ",
    "zip": "80539",
    "geo": {
      "lat": 31.519220983656552,
      "lng": -92.2168588589822
    },
    "phone": "(555) 372-5972",
    "website": "https://example.com",
    "machines": [
      "MagVenture"
    ],
    "specialties": [
      "Bipolar",
      "Anxiety",
      "OCD",
      "Chronic Pain"
    ],
    "insurances": [
      "Medicaid",
      "UnitedHealthcare",
      "Tricare",
      "Aetna",
      "Cigna"
    ],
    "logo_url": "https://placehold.co/200x200/png?text=D",
    "hero_image_url": "https://placehold.co/1200x600/e2e8f0/475569?text=Dr.+David+Smith+Psychiatry",
    "rating": 4.1,
    "review_count": 493,
    "verified": true,
    "type": "Private Practice",
    "doctors": [
      "Dr. Jane Doe",
      "Dr. Emily Smith"
    ],
    "description": "A private psychiatric practice in Capital City, specializing in advanced neuromodulation and personalized mental health care."
  },
  {
    "id": "az-capitalcity-2",
    "name": "Capital City TMS & Wellness Center 2",
    "slug": "capital-city-tms-&-wellness-center-2-capital-city",
    "address": "5317 Main St, Ste 419",
    "city": "Capital City",
    "county": "Main County",
    "state": "AZ",
    "zip": "57604",
    "geo": {
      "lat": 31.020945224743134,
      "lng": -93.62076274307047
    },
    "phone": "(555) 784-9906",
    "website": "https://example.com",
    "machines": [
      "Magstim"
    ],
    "specialties": [
      "Anxiety",
      "Chronic Pain",
      "Depression"
    ],
    "insurances": [
      "Medicare",
      "BlueCross",
      "Cigna",
      "Medicaid",
      "Tricare"
    ],
    "logo_url": "https://placehold.co/200x200/png?text=C",
    "hero_image_url": "https://placehold.co/1200x600/e2e8f0/475569?text=Capital+City+TMS+&+Wellness+Center+2",
    "rating": 4.1,
    "review_count": 103,
    "verified": true,
    "type": "Medical Clinic",
    "doctors": [
      "Dr. Jane Doe",
      "Dr. Robert Smith"
    ],
    "description": "Leading mental health clinic in Main County offering FDA-cleared TMS therapy for depression and OCD."
  },
  {
    "id": "az-capitalcity-3",
    "name": "Capital City TMS & Wellness Center 3",
    "slug": "capital-city-tms-&-wellness-center-3-capital-city",
    "address": "5377 Maple St, Ste 420",
    "city": "Capital City",
    "county": "Main County",
    "state": "AZ",
    "zip": "77851",
    "geo": {
      "lat": 31.418776819948416,
      "lng": -99.88125741224616
    },
    "phone": "(555) 590-2016",
    "website": "https://example.com",
    "machines": [
      "Nexstim"
    ],
    "specialties": [
      "Depression",
      "PTSD",
      "OCD"
    ],
    "insurances": [
      "Cigna",
      "BlueCross",
      "Medicaid",
      "Tricare",
      "Aetna"
    ],
    "logo_url": "https://placehold.co/200x200/png?text=C",
    "hero_image_url": "https://placehold.co/1200x600/e2e8f0/475569?text=Capital+City+TMS+&+Wellness+Center+3",
    "rating": 4.8,
    "review_count": 107,
    "verified": true,
    "type": "Medical Clinic",
    "doctors": [
      "Dr. Jane Doe",
      "Dr. Emily Smith"
    ],
    "description": "Leading mental health clinic in Main County offering FDA-cleared TMS therapy for depression and OCD."
  },
  {
    "id": "az-metrocity-4",
    "name": "Metro City TMS & Wellness Center 1",
    "slug": "metro-city-tms-&-wellness-center-1-metro-city",
    "address": "2719 Oak St, Ste 365",
    "city": "Metro City",
    "county": "Metro County",
    "state": "AZ",
    "zip": "15528",
    "geo": {
      "lat": 34.918489312300956,
      "lng": -91.30905518686264
    },
    "phone": "(555) 189-3977",
    "website": "https://example.com",
    "machines": [
      "BrainsWay",
      "MagVenture"
    ],
    "specialties": [
      "Bipolar",
      "OCD",
      "PTSD",
      "Chronic Pain",
      "Anxiety"
    ],
    "insurances": [
      "Medicare",
      "UnitedHealthcare",
      "Cigna",
      "BlueCross",
      "Tricare",
      "Aetna"
    ],
    "logo_url": "https://placehold.co/200x200/png?text=M",
    "hero_image_url": "https://placehold.co/1200x600/e2e8f0/475569?text=Metro+City+TMS+&+Wellness+Center+1",
    "rating": 4.7,
    "review_count": 59,
    "verified": false,
    "type": "Medical Clinic",
    "doctors": [
      "Dr. Jane Doe",
      "Dr. Robert Smith"
    ],
    "description": "Leading mental health clinic in Metro County offering FDA-cleared TMS therapy for depression and OCD."
  },
  {
    "id": "az-metrocity-5",
    "name": "Metro City TMS & Wellness Center 2",
    "slug": "metro-city-tms-&-wellness-center-2-metro-city",
    "address": "7320 Main St, Ste 265",
    "city": "Metro City",
    "county": "Metro County",
    "state": "AZ",
    "zip": "46728",
    "geo": {
      "lat": 39.79187927961734,
      "lng": -91.62722029029658
    },
    "phone": "(555) 867-1905",
    "website": "https://example.com",
    "machines": [
      "BrainsWay"
    ],
    "specialties": [
      "Anxiety",
      "Depression",
      "Bipolar"
    ],
    "insurances": [
      "Cigna",
      "UnitedHealthcare",
      "Medicare",
      "Medicaid",
      "Tricare",
      "Aetna"
    ],
    "logo_url": "https://placehold.co/200x200/png?text=M",
    "hero_image_url": "https://placehold.co/1200x600/e2e8f0/475569?text=Metro+City+TMS+&+Wellness+Center+2",
    "rating": 4.2,
    "review_count": 209,
    "verified": true,
    "type": "Medical Clinic",
    "doctors": [
      "Dr. Jane Doe",
      "Dr. Robert Smith"
    ],
    "description": "Leading mental health clinic in Metro County offering FDA-cleared TMS therapy for depression and OCD."
  },
  {
    "id": "az-metrocity-6",
    "name": "Dr. Jennifer Patel Psychiatry",
    "slug": "dr-jennifer-patel-psychiatry-metro-city",
    "address": "3082 Main St, Ste 423",
    "city": "Metro City",
    "county": "Metro County",
    "state": "AZ",
    "zip": "52732",
    "geo": {
      "lat": 38.25113611118426,
      "lng": -93.12479199280101
    },
    "phone": "(555) 407-5768",
    "website": "https://example.com",
    "machines": [
      "Nexstim"
    ],
    "specialties": [
      "Chronic Pain",
      "Depression",
      "Anxiety",
      "OCD",
      "Bipolar"
    ],
    "insurances": [
      "UnitedHealthcare",
      "Cigna",
      "Medicare",
      "BlueCross",
      "Aetna",
      "Medicaid"
    ],
    "logo_url": "https://placehold.co/200x200/png?text=D",
    "hero_image_url": "https://placehold.co/1200x600/e2e8f0/475569?text=Dr.+Jennifer+Patel+Psychiatry",
    "rating": 4.0,
    "review_count": 485,
    "verified": true,
    "type": "Private Practice",
    "doctors": [
      "Dr. John Doe",
      "Dr. Emily Smith"
    ],
    "description": "A private psychiatric practice in Metro City, specializing in advanced neuromodulation and personalized mental health care."
  },
  {
    "id": "az-metrocity-7",
    "name": "Dr. David Patel Psychiatry",
    "slug": "dr-david-patel-psychiatry-metro-city",
    "address": "5216 Oak St, Ste 437",
    "city": "Metro City",
    "county": "Metro County",
    "state": "AZ",
    "zip": "86811",
    "geo": {
      "lat": 30.546730716062854,
      "lng": -92.03892499651842
    },
    "phone": "(555) 211-5374",
    "website": "https://example.com",
    "machines": [
      "Nexstim",
      "NeuroStar"
    ],
    "specialties": [
      "Depression",
      "Bipolar",
      "Anxiety"
    ],
    "insurances": [
      "Medicaid",
      "Cigna",
      "Tricare",
      "Aetna",
      "UnitedHealthcare"
    ],
    "logo_url": "https://placehold.co/200x200/png?text=D",
    "hero_image_url": "https://placehold.co/1200x600/e2e8f0/475569?text=Dr.+David+Patel+Psychiatry",
    "rating": 4.8,
    "review_count": 150,
    "verified": true,
    "type": "Private Practice",
    "doctors": [
      "Dr. John Doe",
      "Dr. Emily Smith"
    ],
    "description": "A private psychiatric practice in Metro City, specializing in advanced neuromodulation and personalized mental health care."
  }
]