[
  {
    "id": "wi-capitalcity-1",
    "name": "Dr. Jennifer Lee Psychiatry",
    "slug": "dr-jennifer-lee-psychiatry-capital-city",
    "address": "4021 Cedar St, Ste 271",
    "city": "Capital City",
    "county": "Main County",
    "state": "WI",
    "zip": "89689",
    "geo": {
      "lat": 36.643596389353526,
      "lng": -95.97631596906848
    },
    "phone": "(555) 905-4143",
    "website": "https://example.com",
    "machines": [
      "CloudTMS",
      "BrainsWay"
    ],
    "specialties": [
      "Depression",
      "Bipolar",
      "PTSD",
      "Chronic Pain"
    ],
    "insurances": [
      "Tricare",
      "Aetna",
      "Cigna",
      "UnitedHealthcare"
    ],
    "logo_url": "https://placehold.co/200x200/png?text=D",
    "hero_image_url": "https://placehold.co/1200x600/e2e8f0/475569?text=Dr.+Jennifer+Lee+Psychiatry",
    "rating": 4.9,
    "review_count": 291,
    "verified": true,
    "type": "Private Practice",
    "doctors": [
      "Dr. John Doe",
      "Dr. Emily Smith"
    ],
    "description": "A private psychiatric practice in Capital City, specializing in advanced neuromodulation and personalized mental health care."
  },
  {
    "id": "wi-capitalcity-2",
    "name": "Capital City TMS & Wellness Center 2",
    "slug": "capital-city-tms-&-wellness-center-2-capital-city",
    "address": "471 Maple St, Ste 399",
    "city": "Capital City",
    "county": "Main County",
    "state": "WI",
    "zip": "28982",
    "geo": {
      "lat": 37.64079552595228,
      "lng": -97.91779595651091
    },
    "phone": "(555) 520-8172",
    "website": "https://example.com",
    "machines": [
      "BrainsWay",
      "Magstim"
    ],
    "specialties": [
      "Bipolar",
      "Chronic Pain",
      "Depression"
    ],
    "insurances": [
      "Medicaid",
      "Medicare",
      "UnitedHealthcare"
    ],
    "logo_url": "https://placehold.co/200x200/png?text=C",
    "hero_image_url": "https://placehold.co/1200x600/e2e8f0/475569?text=Capital+City+TMS+&+Wellness+Center+2",
    "rating": 4.3,
    "review_count": 336,
    "verified": false,
    "type": "Medical Clinic",
    "doctors": [
      "Dr. Jane Doe",
      "Dr. Robert Smith"
    ],
    "description": "Leading mental health clinic in Main County offering FDA-cleared TMS therapy for depression and OCD."
  },
  {
    "id": "wi-capitalcity-3",
    "name": "Capital City TMS & Wellness Center 3",
    "slug": "capital-city-tms-&-wellness-center-3-capital-city",
    "address": "874 Cedar St, Ste 253",
    "city": "Capital City",
    "county": "Main County",
    "state": "WI",
    "zip": "47408",
    "geo": {
      "lat": 35.851410748842,
      "lng": -96.07421543951796
    },
    "phone": "(555) 210-1475",
    "website": "https://example.com",
    "machines": [
      "MagVenture",
      "NeuroStar"
    ],
    "specialties": [
      "OCD",
      "Anxiety",
      "PTSD"
    ],
    "insurances": [
      "Aetna",
      "UnitedHealthcare",
      "Cigna",
      "Tricare"
    ],
    "logo_url": "https://placehold.co/200x200/png?text=C",
    "hero_image_url": "https://placehold.co/1200x600/e2e8f0/475569?text=Capital+City+TMS+&+Wellness+Center+3",
    "rating": 4.6,
    "review_count": 317,
    "verified": true,
    "type": "Medical Clinic",
    "doctors": [
      "Dr. Jane Doe",
      "Dr. Robert Smith"
    ],
    "description": "Leading mental health clinic in Main County offering FDA-cleared TMS therapy for depression and OCD."
  },
  {
    "id": "wi-capitalcity-4",
    "name": "Capital City TMS & Wellness Center 4",
    "slug": "capital-city-tms-&-wellness-center-4-capital-city",
    "address": "1244 Oak St, Ste 373",
    "city": "Capital City",
    "county": "Main County",
    "state": "WI",
    "zip": "83673",
    "geo": {
      "lat": 36.154402448268335,
      "lng": -96.27494494375289
    },
    "phone": "(555) 885-8098",
    "website": "https://example.com",
    "machines": [
      "CloudTMS"
    ],
    "specialties": [
      "Bipolar",
      "Depression",
      "Anxiety",
      "OCD",
      "PTSD"
    ],
    "insurances": [
      "Aetna",
      "Medicare",
      "Medicaid",
      "BlueCross"
    ],
    "logo_url": "https://placehold.co/200x200/png?text=C",
    "hero_image_url": "https://placehold.co/1200x600/e2e8f0/475569?text=Capital+City+TMS+&+Wellness+Center+4",
    "rating": 4.9,
    "review_count": 333,
    "verified": false,
    "type": "Medical Clinic",
    "doctors": [
      "Dr. John Doe",
      "Dr. Emily Smith"
    ],
    "description": "Leading mental health clinic in Main County offering FDA-cleared TMS therapy for depression and OCD."
  },
  {
    "id": "wi-capitalcity-5",
    "name": "Capital City TMS & Wellness Center 5",
    "slug": "capital-city-tms-&-wellness-center-5-capital-city",
    "address": "2419 Cedar St, Ste 451",
    "city": "Capital City",
    "county": "Main County",
    "state": "WI",
    "zip": "67331",
    "geo": {
      "lat": 34.23947317371098,
      "lng": -95.3874160451225
    },
    "phone": "(555) 183-6342",
    "website": "https://example.com",
    "machines": [
      "MagVenture"
    ],
    "specialties": [
      "PTSD",
      "Anxiety",
      "Chronic Pain",
      "OCD"
    ],
    "insurances": [
      "Medicare",
      "Aetna",
      "UnitedHealthcare"
    ],
    "logo_url": "https://placehold.co/200x200/png?text=C",
    "hero_image_url": "https://placehold.co/1200x600/e2e8f0/475569?text=Capital+City+TMS+&+Wellness+Center+5",
    "rating": 4.1,
    "review_count": 428,
    "verified": false,
    "type": "Medical Clinic",
    "doctors": [
      "Dr. Jane Doe",
      "Dr. Emily Smith"
    ],
    "description": "Leading mental health clinic in Main County offering FDA-cleared TMS therapy for depression and OCD."
  },
  {
    "id": "wi-metrocity-6",
    "name": "Metro City TMS & Wellness Center 1",
    "slug": "metro-city-tms-&-wellness-center-1-metro-city",
    "address": "5415 Oak St, Ste 139",
    "city": "Metro City",
    "county": "Metro County",
    "state": "WI",
    "zip": "16824",
    "geo": {
      "lat": 36.41065358869277,
      "lng": -90.45488492391982
    },
    "phone": "(555) 206-2534",
    "website": "https://example.com",
    "machines": [
      "NeuroStar",
      "CloudTMS"
    ],
    "specialties": [
      "Depression",
      "Chronic Pain",
      "OCD"
    ],
    "insurances": [
      "Cigna",
      "Medicaid",
      "Aetna",
      "Tricare"
    ],
    "logo_url": "https://placehold.co/200x200/png?text=M",
    "hero_image_url": "https://placehold.co/1200x600/e2e8f0/475569?text=Metro+City+TMS+&+Wellness+Center+1",
    "rating": 4.8,
    "review_count": 277,
    "verified": true,
    "type": "Medical Clinic",
    "doctors": [
      "Dr. John Doe",
      "Dr. Robert Smith"
    ],
    "description": "Leading mental health clinic in Metro County offering FDA-cleared TMS therapy for depression and OCD."
  },
  {
    "id": "wi-metrocity-7",
    "name": "Dr. Alan Patel Psychiatry",
    "slug": "dr-alan-patel-psychiatry-metro-city",
    "address": "7258 Main St, Ste 270",
    "city": "Metro City",
    "county": "Metro County",
    "state": "WI",
    "zip": "61748",
    "geo": {
      "lat": 30.667774354580736,
      "lng": -97.7120318186277
    },
    "phone": "(555) 137-6144",
    "website": "https://example.com",
    "machines": [
      "Nexstim"
    ],
    "specialties": [
      "Chronic Pain",
      "PTSD",
      "OCD",
      "Bipolar",
      "Depression"
    ],
    "insurances": [
      "Medicaid",
      "Aetna",
      "Cigna",
      "UnitedHealthcare",
      "Tricare"
    ],
    "logo_url": "https://placehold.co/200x200/png?text=D",
    "hero_image_url": "https://placehold.co/1200x600/e2e8f0/475569?text=Dr.+Alan+Patel+Psychiatry",
    "rating": 4.6,
    "review_count": 46,
    "verified": true,
    "type": "Private Practice",
    "doctors": [
      "Dr. John Doe",
      "Dr. Emily Smith"
    ],
    "description": "A private psychiatric practice in Metro City, specializing in advanced neuromodulation and personalized mental health care."
  },
  {
    "id": "wi-metrocity-8",
    "name": "Dr. Lisa Patel Psychiatry",
    "slug": "dr-lisa-patel-psychiatry-metro-city",
    "address": "4437 Main St, Ste 403",
    "city": "Metro City",
    "county": "Metro County",
    "state": "WI",
    "zip": "18368",
    "geo": {
      "lat": 39.49779432472474,
      "lng": -98.34135782213345
    },
    "phone": "(555) 212-2550",
    "website": "https://example.com",
    "machines": [
      "Magstim"
    ],
    "specialties": [
      "PTSD",
      "OCD",
      "Bipolar",
      "Anxiety",
      "Chronic Pain"
    ],
    "insurances": [
      "Aetna",
      "Medicare",
      "BlueCross",
      "Tricare",
      "Cigna"
    ],
    "logo_url": "https://placehold.co/200x200/png?text=D",
    "hero_image_url": "https://placehold.co/1200x600/e2e8f0/475569?text=Dr.+Lisa+Patel+Psychiatry",
    "rating": 4.5,
    "review_count": 410,
    "verified": true,
    "type": "Private Practice",
    "doctors": [
      "Dr. John Doe",
      "Dr. Robert Smith"
    ],
    "description": "A private psychiatric practice in Metro City, specializing in advanced neuromodulation and personalized mental health care."
  },
  {
    "id": "wi-metrocity-9",
    "name": "Metro City TMS & Wellness Center 4",
    "slug": "metro-city-tms-&-wellness-center-4-metro-city",
    "address": "1327 Main St, Ste 298",
    "city": "Metro City",
    "county": "Metro County",
    "state": "WI",
    "zip": "20150",
    "geo": {
      "lat": 38.728950724126676,
      "lng": -92.60906991027998
    },
    "phone": "(555) 855-5383",
    "website": "https://example.com",
    "machines": [
      "MagVenture"
    ],
    "specialties": [
      "Chronic Pain",
      "Anxiety",
      "Depression",
      "Bipolar",
      "PTSD"
    ],
    "insurances": [
      "Aetna",
      "Tricare",
      "UnitedHealthcare"
    ],
    "logo_url": "https://placehold.co/200x200/png?text=M",
    "hero_image_url": "https://placehold.co/1200x600/e2e8f0/475569?text=Metro+City+TMS+&+Wellness+Center+4",
    "rating": 4.2,
    "review_count": 274,
    "verified": false,
    "type": "Medical Clinic",
    "doctors": [
      "Dr. John Doe",
      "Dr. Robert Smith"
    ],
    "description": "Leading mental health clinic in Metro County offering FDA-cleared TMS therapy for depression and OCD."
  }
]