[
  {
    "id": "ma-capitalcity-1",
    "name": "Capital City TMS & Wellness Center 1",
    "slug": "capital-city-tms-&-wellness-center-1-capital-city",
    "address": "6470 Main St, Ste 421",
    "city": "Capital City",
    "county": "Main County",
    "state": "MA",
    "zip": "95502",
    "geo": {
      "lat": 34.841005671260845,
      "lng": -92.79134037280532
    },
    "phone": "(555) 790-5316",
    "website": "https://example.com",
    "machines": [
      "BrainsWay",
      "CloudTMS"
    ],
    "specialties": [
      "Chronic Pain",
      "OCD",
      "PTSD"
    ],
    "insurances": [
      "Medicaid",
      "Aetna",
      "Tricare"
    ],
    "logo_url": "https://placehold.co/200x200/png?text=C",
    "hero_image_url": "https://placehold.co/1200x600/e2e8f0/475569?text=Capital+City+TMS+&+Wellness+Center+1",
    "rating": 4.3,
    "review_count": 79,
    "verified": true,
    "type": "Medical Clinic",
    "doctors": [
      "Dr. Jane Doe",
      "Dr. Robert Smith"
    ],
    "description": "Leading mental health clinic in Main County offering FDA-cleared TMS therapy for depression and OCD."
  },
  {
    "id": "ma-capitalcity-2",
    "name": "Capital City TMS & Wellness Center 2",
    "slug": "capital-city-tms-&-wellness-center-2-capital-city",
    "address": "8474 Main St, Ste 484",
    "city": "Capital City",
    "county": "Main County",
    "state": "MA",
    "zip": "74414",
    "geo": {
      "lat": 32.5484053752012,
      "lng": -97.50510640216146
    },
    "phone": "(555) 933-6022",
    "website": "https://example.com",
    "machines": [
      "NeuroStar",
      "MagVenture"
    ],
    "specialties": [
      "PTSD",
      "Anxiety",
      "Chronic Pain"
    ],
    "insurances": [
      "BlueCross",
      "Aetna",
      "Medicare",
      "Cigna"
    ],
    "logo_url": "https://placehold.co/200x200/png?text=C",
    "hero_image_url": "https://placehold.co/1200x600/e2e8f0/475569?text=Capital+City+TMS+&+Wellness+Center+2",
    "rating": 4.8,
    "review_count": 245,
    "verified": true,
    "type": "Medical Clinic",
    "doctors": [
      "Dr. John Doe",
      "Dr. Emily Smith"
    ],
    "description": "Leading mental health clinic in Main County offering FDA-cleared TMS therapy for depression and OCD."
  },
  {
    "id": "ma-capitalcity-3",
    "name": "Dr. Alan Patel Psychiatry",
    "slug": "dr-alan-patel-psychiatry-capital-city",
    "address": "5707 Cedar St, Ste 265",
    "city": "Capital City",
    "county": "Main County",
    "state": "MA",
    "zip": "26606",
    "geo": {
      "lat": 30.91997524577475,
      "lng": -99.3428868617698
    },
    "phone": "(555) 102-6483",
    "website": "https://example.com",
    "machines": [
      "NeuroStar"
    ],
    "specialties": [
      "Chronic Pain",
      "PTSD",
      "Bipolar",
      "Depression"
    ],
    "insurances": [
      "Tricare",
      "Medicare",
      "Medicaid",
      "UnitedHealthcare",
      "BlueCross"
    ],
    "logo_url": "https://placehold.co/200x200/png?text=D",
    "hero_image_url": "https://placehold.co/1200x600/e2e8f0/475569?text=Dr.+Alan+Patel+Psychiatry",
    "rating": 4.6,
    "review_count": 78,
    "verified": true,
    "type": "Private Practice",
    "doctors": [
      "Dr. Jane Doe",
      "Dr. Robert Smith"
    ],
    "description": "A private psychiatric practice in Capital City, specializing in advanced neuromodulation and personalized mental health care."
  },
  {
    "id": "ma-capitalcity-4",
    "name": "Capital City TMS & Wellness Center 4",
    "slug": "capital-city-tms-&-wellness-center-4-capital-city",
    "address": "3742 Maple St, Ste 225",
    "city": "Capital City",
    "county": "Main County",
    "state": "MA",
    "zip": "95413",
    "geo": {
      "lat": 39.63321229590297,
      "lng": -90.29642366208539
    },
    "phone": "(555) 355-5650",
    "website": "https://example.com",
    "machines": [
      "Nexstim",
      "MagVenture"
    ],
    "specialties": [
      "PTSD",
      "Anxiety",
      "Chronic Pain",
      "Depression",
      "Bipolar"
    ],
    "insurances": [
      "UnitedHealthcare",
      "Medicare",
      "Medicaid"
    ],
    "logo_url": "https://placehold.co/200x200/png?text=C",
    "hero_image_url": "https://placehold.co/1200x600/e2e8f0/475569?text=Capital+City+TMS+&+Wellness+Center+4",
    "rating": 4.8,
    "review_count": 370,
    "verified": false,
    "type": "Medical Clinic",
    "doctors": [
      "Dr. John Doe",
      "Dr. Robert Smith"
    ],
    "description": "Leading mental health clinic in Main County offering FDA-cleared TMS therapy for depression and OCD."
  },
  {
    "id": "ma-capitalcity-5",
    "name": "Capital City TMS & Wellness Center 5",
    "slug": "capital-city-tms-&-wellness-center-5-capital-city",
    "address": "3182 Cedar St, Ste 155",
    "city": "Capital City",
    "county": "Main County",
    "state": "MA",
    "zip": "26520",
    "geo": {
      "lat": 37.00178532056809,
      "lng": -99.42066854626609
    },
    "phone": "(555) 118-3532",
    "website": "https://example.com",
    "machines": [
      "Nexstim",
      "Magstim"
    ],
    "specialties": [
      "Depression",
      "Bipolar",
      "OCD",
      "PTSD",
      "Chronic Pain"
    ],
    "insurances": [
      "BlueCross",
      "Medicare",
      "Cigna",
      "UnitedHealthcare",
      "Tricare"
    ],
    "logo_url": "https://placehold.co/200x200/png?text=C",
    "hero_image_url": "https://placehold.co/1200x600/e2e8f0/475569?text=Capital+City+TMS+&+Wellness+Center+5",
    "rating": 4.3,
    "review_count": 496,
    "verified": true,
    "type": "Medical Clinic",
    "doctors": [
      "Dr. Jane Doe",
      "Dr. Emily Smith"
    ],
    "description": "Leading mental health clinic in Main County offering FDA-cleared TMS therapy for depression and OCD."
  },
  {
    "id": "ma-metrocity-6",
    "name": "Metro City TMS & Wellness Center 1",
    "slug": "metro-city-tms-&-wellness-center-1-metro-city",
    "address": "846 Oak St, Ste 435",
    "city": "Metro City",
    "county": "Metro County",
    "state": "MA",
    "zip": "11410",
    "geo": {
      "lat": 37.03757904283549,
      "lng": -90.29193226569416
    },
    "phone": "(555) 208-2530",
    "website": "https://example.com",
    "machines": [
      "CloudTMS",
      "MagVenture"
    ],
    "specialties": [
      "Chronic Pain",
      "PTSD",
      "Bipolar",
      "Depression"
    ],
    "insurances": [
      "Aetna",
      "BlueCross",
      "Medicaid"
    ],
    "logo_url": "https://placehold.co/200x200/png?text=M",
    "hero_image_url": "https://placehold.co/1200x600/e2e8f0/475569?text=Metro+City+TMS+&+Wellness+Center+1",
    "rating": 4.5,
    "review_count": 495,
    "verified": true,
    "type": "Medical Clinic",
    "doctors": [
      "Dr. Jane Doe",
      "Dr. Robert Smith"
    ],
    "description": "Leading mental health clinic in Metro County offering FDA-cleared TMS therapy for depression and OCD."
  },
  {
    "id": "ma-metrocity-7",
    "name": "Metro City TMS & Wellness Center 2",
    "slug": "metro-city-tms-&-wellness-center-2-metro-city",
    "address": "6422 Main St, Ste 399",
    "city": "Metro City",
    "county": "Metro County",
    "state": "MA",
    "zip": "79647",
    "geo": {
      "lat": 38.84048874030517,
      "lng": -90.82578956150842
    },
    "phone": "(555) 994-2707",
    "website": "https://example.com",
    "machines": [
      "NeuroStar"
    ],
    "specialties": [
      "PTSD",
      "Bipolar",
      "Depression",
      "OCD"
    ],
    "insurances": [
      "Aetna",
      "Tricare",
      "Medicaid",
      "UnitedHealthcare"
    ],
    "logo_url": "https://placehold.co/200x200/png?text=M",
    "hero_image_url": "https://placehold.co/1200x600/e2e8f0/475569?text=Metro+City+TMS+&+Wellness+Center+2",
    "rating": 4.9,
    "review_count": 444,
    "verified": false,
    "type": "Medical Clinic",
    "doctors": [
      "Dr. John Doe",
      "Dr. Robert Smith"
    ],
    "description": "Leading mental health clinic in Metro County offering FDA-cleared TMS therapy for depression and OCD."
  },
  {
    "id": "ma-metrocity-8",
    "name": "Metro City TMS & Wellness Center 3",
    "slug": "metro-city-tms-&-wellness-center-3-metro-city",
    "address": "4183 Cedar St, Ste 302",
    "city": "Metro City",
    "county": "Metro County",
    "state": "MA",
    "zip": "67304",
    "geo": {
      "lat": 39.53703910828929,
      "lng": -97.40687481087781
    },
    "phone": "(555) 968-1451",
    "website": "https://example.com",
    "machines": [
      "Magstim"
    ],
    "specialties": [
      "Bipolar",
      "OCD",
      "PTSD",
      "Depression"
    ],
    "insurances": [
      "Aetna",
      "Medicaid",
      "Cigna",
      "Medicare"
    ],
    "logo_url": "https://placehold.co/200x200/png?text=M",
    "hero_image_url": "https://placehold.co/1200x600/e2e8f0/475569?text=Metro+City+TMS+&+Wellness+Center+3",
    "rating": 5.0,
    "review_count": 403,
    "verified": false,
    "type": "Medical Clinic",
    "doctors": [
      "Dr. John Doe",
      "Dr. Emily Smith"
    ],
    "description": "Leading mental health clinic in Metro County offering FDA-cleared TMS therapy for depression and OCD."
  }
]