[
  {
    "id": "nj-capitalcity-1",
    "name": "Capital City TMS & Wellness Center 1",
    "slug": "capital-city-tms-&-wellness-center-1-capital-city",
    "address": "4170 Cedar St, Ste 352",
    "city": "Capital City",
    "county": "Main County",
    "state": "NJ",
    "zip": "66826",
    "geo": {
      "lat": 32.95729706957139,
      "lng": -90.33542881693869
    },
    "phone": "(555) 357-4713",
    "website": "https://example.com",
    "machines": [
      "MagVenture",
      "CloudTMS"
    ],
    "specialties": [
      "Depression",
      "PTSD",
      "Bipolar"
    ],
    "insurances": [
      "Tricare",
      "Medicaid",
      "Cigna"
    ],
    "logo_url": "https://placehold.co/200x200/png?text=C",
    "hero_image_url": "https://placehold.co/1200x600/e2e8f0/475569?text=Capital+City+TMS+&+Wellness+Center+1",
    "rating": 4.6,
    "review_count": 37,
    "verified": true,
    "type": "Medical Clinic",
    "doctors": [
      "Dr. John Doe",
      "Dr. Emily Smith"
    ],
    "description": "Leading mental health clinic in Main County offering FDA-cleared TMS therapy for depression and OCD."
  },
  {
    "id": "nj-capitalcity-2",
    "name": "Dr. David Johnson Psychiatry",
    "slug": "dr-david-johnson-psychiatry-capital-city",
    "address": "5466 Cedar St, Ste 307",
    "city": "Capital City",
    "county": "Main County",
    "state": "NJ",
    "zip": "67139",
    "geo": {
      "lat": 34.61150718541332,
      "lng": -95.52163822398316
    },
    "phone": "(555) 981-6785",
    "website": "https://example.com",
    "machines": [
      "CloudTMS"
    ],
    "specialties": [
      "Bipolar",
      "PTSD",
      "Chronic Pain"
    ],
    "insurances": [
      "Medicare",
      "Cigna",
      "Medicaid",
      "BlueCross"
    ],
    "logo_url": "https://placehold.co/200x200/png?text=D",
    "hero_image_url": "https://placehold.co/1200x600/e2e8f0/475569?text=Dr.+David+Johnson+Psychiatry",
    "rating": 5.0,
    "review_count": 120,
    "verified": false,
    "type": "Private Practice",
    "doctors": [
      "Dr. John Doe",
      "Dr. Robert Smith"
    ],
    "description": "A private psychiatric practice in Capital City, specializing in advanced neuromodulation and personalized mental health care."
  },
  {
    "id": "nj-capitalcity-3",
    "name": "Dr. David Garcia Psychiatry",
    "slug": "dr-david-garcia-psychiatry-capital-city",
    "address": "2041 Maple St, Ste 365",
    "city": "Capital City",
    "county": "Main County",
    "state": "NJ",
    "zip": "57985",
    "geo": {
      "lat": 39.611542529023325,
      "lng": -90.65594378115469
    },
    "phone": "(555) 344-6406",
    "website": "https://example.com",
    "machines": [
      "BrainsWay",
      "Magstim"
    ],
    "specialties": [
      "Depression",
      "Chronic Pain",
      "PTSD",
      "Anxiety",
      "Bipolar"
    ],
    "insurances": [
      "Aetna",
      "UnitedHealthcare",
      "Tricare",
      "Medicare"
    ],
    "logo_url": "https://placehold.co/200x200/png?text=D",
    "hero_image_url": "https://placehold.co/1200x600/e2e8f0/475569?text=Dr.+David+Garcia+Psychiatry",
    "rating": 4.5,
    "review_count": 35,
    "verified": false,
    "type": "Private Practice",
    "doctors": [
      "Dr. Jane Doe",
      "Dr. Robert Smith"
    ],
    "description": "A private psychiatric practice in Capital City, specializing in advanced neuromodulation and personalized mental health care."
  },
  {
    "id": "nj-capitalcity-4",
    "name": "Capital City TMS & Wellness Center 4",
    "slug": "capital-city-tms-&-wellness-center-4-capital-city",
    "address": "4130 Maple St, Ste 440",
    "city": "Capital City",
    "county": "Main County",
    "state": "NJ",
    "zip": "93735",
    "geo": {
      "lat": 30.73214740609866,
      "lng": -93.96534449118941
    },
    "phone": "(555) 718-6402",
    "website": "https://example.com",
    "machines": [
      "BrainsWay",
      "MagVenture"
    ],
    "specialties": [
      "OCD",
      "Bipolar",
      "Depression",
      "Chronic Pain"
    ],
    "insurances": [
      "Aetna",
      "Tricare",
      "Medicaid",
      "BlueCross",
      "Medicare"
    ],
    "logo_url": "https://placehold.co/200x200/png?text=C",
    "hero_image_url": "https://placehold.co/1200x600/e2e8f0/475569?text=Capital+City+TMS+&+Wellness+Center+4",
    "rating": 5.0,
    "review_count": 211,
    "verified": true,
    "type": "Medical Clinic",
    "doctors": [
      "Dr. Jane Doe",
      "Dr. Emily Smith"
    ],
    "description": "Leading mental health clinic in Main County offering FDA-cleared TMS therapy for depression and OCD."
  },
  {
    "id": "nj-capitalcity-5",
    "name": "Dr. Michael Lee Psychiatry",
    "slug": "dr-michael-lee-psychiatry-capital-city",
    "address": "6688 Main St, Ste 161",
    "city": "Capital City",
    "county": "Main County",
    "state": "NJ",
    "zip": "56797",
    "geo": {
      "lat": 37.04528689871001,
      "lng": -96.64404246452983
    },
    "phone": "(555) 796-9175",
    "website": "https://example.com",
    "machines": [
      "BrainsWay"
    ],
    "specialties": [
      "Bipolar",
      "Chronic Pain",
      "OCD"
    ],
    "insurances": [
      "Medicare",
      "Aetna",
      "Medicaid"
    ],
    "logo_url": "https://placehold.co/200x200/png?text=D",
    "hero_image_url": "https://placehold.co/1200x600/e2e8f0/475569?text=Dr.+Michael+Lee+Psychiatry",
    "rating": 4.4,
    "review_count": 66,
    "verified": true,
    "type": "Private Practice",
    "doctors": [
      "Dr. Jane Doe",
      "Dr. Emily Smith"
    ],
    "description": "A private psychiatric practice in Capital City, specializing in advanced neuromodulation and personalized mental health care."
  },
  {
    "id": "nj-capitalcity-6",
    "name": "Dr. Sarah Garcia Psychiatry",
    "slug": "dr-sarah-garcia-psychiatry-capital-city",
    "address": "7368 Maple St, Ste 456",
    "city": "Capital City",
    "county": "Main County",
    "state": "NJ",
    "zip": "44222",
    "geo": {
      "lat": 32.04728489887366,
      "lng": -94.43587433860715
    },
    "phone": "(555) 629-6840",
    "website": "https://example.com",
    "machines": [
      "NeuroStar",
      "Nexstim"
    ],
    "specialties": [
      "Depression",
      "Chronic Pain",
      "OCD",
      "Bipolar",
      "PTSD"
    ],
    "insurances": [
      "UnitedHealthcare",
      "Medicaid",
      "BlueCross",
      "Aetna",
      "Medicare",
      "Tricare"
    ],
    "logo_url": "https://placehold.co/200x200/png?text=D",
    "hero_image_url": "https://placehold.co/1200x600/e2e8f0/475569?text=Dr.+Sarah+Garcia+Psychiatry",
    "rating": 4.8,
    "review_count": 446,
    "verified": false,
    "type": "Private Practice",
    "doctors": [
      "Dr. Jane Doe",
      "Dr. Robert Smith"
    ],
    "description": "A private psychiatric practice in Capital City, specializing in advanced neuromodulation and personalized mental health care."
  },
  {
    "id": "nj-metrocity-7",
    "name": "Dr. Lisa Kim Psychiatry",
    "slug": "dr-lisa-kim-psychiatry-metro-city",
    "address": "6092 Oak St, Ste 353",
    "city": "Metro City",
    "county": "Metro County",
    "state": "NJ",
    "zip": "10705",
    "geo": {
      "lat": 36.656236382424396,
      "lng": -95.6533079285644
    },
    "phone": "(555) 859-8423",
    "website": "https://example.com",
    "machines": [
      "BrainsWay",
      "Nexstim"
    ],
    "specialties": [
      "Chronic Pain",
      "OCD",
      "Depression"
    ],
    "insurances": [
      "Aetna",
      "Medicaid",
      "Cigna",
      "UnitedHealthcare",
      "BlueCross"
    ],
    "logo_url": "https://placehold.co/200x200/png?text=D",
    "hero_image_url": "https://placehold.co/1200x600/e2e8f0/475569?text=Dr.+Lisa+Kim+Psychiatry",
    "rating": 4.7,
    "review_count": 373,
    "verified": true,
    "type": "Private Practice",
    "doctors": [
      "Dr. John Doe",
      "Dr. Robert Smith"
    ],
    "description": "A private psychiatric practice in Metro City, specializing in advanced neuromodulation and personalized mental health care."
  },
  {
    "id": "nj-metrocity-8",
    "name": "Metro City TMS & Wellness Center 2",
    "slug": "metro-city-tms-&-wellness-center-2-metro-city",
    "address": "841 Maple St, Ste 153",
    "city": "Metro City",
    "county": "Metro County",
    "state": "NJ",
    "zip": "18397",
    "geo": {
      "lat": 32.21345613935902,
      "lng": -95.32041787921224
    },
    "phone": "(555) 736-4021",
    "website": "https://example.com",
    "machines": [
      "CloudTMS"
    ],
    "specialties": [
      "Depression",
      "Bipolar",
      "PTSD",
      "Chronic Pain"
    ],
    "insurances": [
      "Medicaid",
      "Tricare",
      "UnitedHealthcare",
      "Medicare",
      "BlueCross"
    ],
    "logo_url": "https://placehold.co/200x200/png?text=M",
    "hero_image_url": "https://placehold.co/1200x600/e2e8f0/475569?text=Metro+City+TMS+&+Wellness+Center+2",
    "rating": 4.3,
    "review_count": 497,
    "verified": false,
    "type": "Medical Clinic",
    "doctors": [
      "Dr. Jane Doe",
      "Dr. Emily Smith"
    ],
    "description": "Leading mental health clinic in Metro County offering FDA-cleared TMS therapy for depression and OCD."
  },
  {
    "id": "nj-metrocity-9",
    "name": "Metro City TMS & Wellness Center 3",
    "slug": "metro-city-tms-&-wellness-center-3-metro-city",
    "address": "4658 Cedar St, Ste 218",
    "city": "Metro City",
    "county": "Metro County",
    "state": "NJ",
    "zip": "68196",
    "geo": {
      "lat": 32.95958772261886,
      "lng": -98.57879397120362
    },
    "phone": "(555) 734-1082",
    "website": "https://example.com",
    "machines": [
      "NeuroStar"
    ],
    "specialties": [
      "Depression",
      "Bipolar",
      "Chronic Pain"
    ],
    "insurances": [
      "Medicaid",
      "Tricare",
      "Aetna"
    ],
    "logo_url": "https://placehold.co/200x200/png?text=M",
    "hero_image_url": "https://placehold.co/1200x600/e2e8f0/475569?text=Metro+City+TMS+&+Wellness+Center+3",
    "rating": 4.1,
    "review_count": 41,
    "verified": false,
    "type": "Medical Clinic",
    "doctors": [
      "Dr. Jane Doe",
      "Dr. Emily Smith"
    ],
    "description": "Leading mental health clinic in Metro County offering FDA-cleared TMS therapy for depression and OCD."
  }
]