[
  {
    "id": "wv-capitalcity-1",
    "name": "Capital City TMS & Wellness Center 1",
    "slug": "capital-city-tms-&-wellness-center-1-capital-city",
    "address": "845 Main St, Ste 167",
    "city": "Capital City",
    "county": "Main County",
    "state": "WV",
    "zip": "29035",
    "geo": {
      "lat": 31.225144864308763,
      "lng": -92.71841445698182
    },
    "phone": "(555) 544-9765",
    "website": "https://example.com",
    "machines": [
      "BrainsWay"
    ],
    "specialties": [
      "Bipolar",
      "Chronic Pain",
      "Anxiety"
    ],
    "insurances": [
      "Medicare",
      "Tricare",
      "Medicaid",
      "Cigna",
      "Aetna",
      "BlueCross"
    ],
    "logo_url": "https://placehold.co/200x200/png?text=C",
    "hero_image_url": "https://placehold.co/1200x600/e2e8f0/475569?text=Capital+City+TMS+&+Wellness+Center+1",
    "rating": 4.1,
    "review_count": 463,
    "verified": false,
    "type": "Medical Clinic",
    "doctors": [
      "Dr. John Doe",
      "Dr. Robert Smith"
    ],
    "description": "Leading mental health clinic in Main County offering FDA-cleared TMS therapy for depression and OCD."
  },
  {
    "id": "wv-capitalcity-2",
    "name": "Capital City TMS & Wellness Center 2",
    "slug": "capital-city-tms-&-wellness-center-2-capital-city",
    "address": "9279 Main St, Ste 253",
    "city": "Capital City",
    "county": "Main County",
    "state": "WV",
    "zip": "67649",
    "geo": {
      "lat": 35.08475516425602,
      "lng": -96.32919680343147
    },
    "phone": "(555) 774-8044",
    "website": "https://example.com",
    "machines": [
      "CloudTMS"
    ],
    "specialties": [
      "Anxiety",
      "OCD",
      "Depression",
      "Bipolar"
    ],
    "insurances": [
      "BlueCross",
      "Tricare",
      "Aetna"
    ],
    "logo_url": "https://placehold.co/200x200/png?text=C",
    "hero_image_url": "https://placehold.co/1200x600/e2e8f0/475569?text=Capital+City+TMS+&+Wellness+Center+2",
    "rating": 4.1,
    "review_count": 384,
    "verified": true,
    "type": "Medical Clinic",
    "doctors": [
      "Dr. John Doe",
      "Dr. Emily Smith"
    ],
    "description": "Leading mental health clinic in Main County offering FDA-cleared TMS therapy for depression and OCD."
  },
  {
    "id": "wv-capitalcity-3",
    "name": "Dr. Sarah Garcia Psychiatry",
    "slug": "dr-sarah-garcia-psychiatry-capital-city",
    "address": "7202 Cedar St, Ste 331",
    "city": "Capital City",
    "county": "Main County",
    "state": "WV",
    "zip": "39245",
    "geo": {
      "lat": 36.329111372852495,
      "lng": -91.38993820841274
    },
    "phone": "(555) 320-5723",
    "website": "https://example.com",
    "machines": [
      "BrainsWay"
    ],
    "specialties": [
      "Chronic Pain",
      "Anxiety",
      "Bipolar",
      "Depression",
      "PTSD"
    ],
    "insurances": [
      "BlueCross",
      "Medicare",
      "Medicaid",
      "Tricare"
    ],
    "logo_url": "https://placehold.co/200x200/png?text=D",
    "hero_image_url": "https://placehold.co/1200x600/e2e8f0/475569?text=Dr.+Sarah+Garcia+Psychiatry",
    "rating": 4.5,
    "review_count": 395,
    "verified": false,
    "type": "Private Practice",
    "doctors": [
      "Dr. Jane Doe",
      "Dr. Robert Smith"
    ],
    "description": "A private psychiatric practice in Capital City, specializing in advanced neuromodulation and personalized mental health care."
  },
  {
    "id": "wv-capitalcity-4",
    "name": "Dr. Jennifer Kim Psychiatry",
    "slug": "dr-jennifer-kim-psychiatry-capital-city",
    "address": "761 Cedar St, Ste 496",
    "city": "Capital City",
    "county": "Main County",
    "state": "WV",
    "zip": "68584",
    "geo": {
      "lat": 38.012332974240636,
      "lng": -95.73045386566974
    },
    "phone": "(555) 336-9577",
    "website": "https://example.com",
    "machines": [
      "BrainsWay",
      "Nexstim"
    ],
    "specialties": [
      "PTSD",
      "Depression",
      "Anxiety",
      "Bipolar",
      "Chronic Pain"
    ],
    "insurances": [
      "Medicaid",
      "Medicare",
      "Aetna",
      "Tricare",
      "UnitedHealthcare"
    ],
    "logo_url": "https://placehold.co/200x200/png?text=D",
    "hero_image_url": "https://placehold.co/1200x600/e2e8f0/475569?text=Dr.+Jennifer+Kim+Psychiatry",
    "rating": 4.4,
    "review_count": 378,
    "verified": true,
    "type": "Private Practice",
    "doctors": [
      "Dr. John Doe",
      "Dr. Robert Smith"
    ],
    "description": "A private psychiatric practice in Capital City, specializing in advanced neuromodulation and personalized mental health care."
  },
  {
    "id": "wv-metrocity-5",
    "name": "Dr. David Smith Psychiatry",
    "slug": "dr-david-smith-psychiatry-metro-city",
    "address": "719 Main St, Ste 239",
    "city": "Metro City",
    "county": "Metro County",
    "state": "WV",
    "zip": "34928",
    "geo": {
      "lat": 36.55880547169674,
      "lng": -96.0467224051539
    },
    "phone": "(555) 816-7337",
    "website": "https://example.com",
    "machines": [
      "Magstim",
      "MagVenture"
    ],
    "specialties": [
      "Anxiety",
      "OCD",
      "Chronic Pain",
      "Depression",
      "PTSD"
    ],
    "insurances": [
      "UnitedHealthcare",
      "Cigna",
      "Medicaid"
    ],
    "logo_url": "https://placehold.co/200x200/png?text=D",
    "hero_image_url": "https://placehold.co/1200x600/e2e8f0/475569?text=Dr.+David+Smith+Psychiatry",
    "rating": 4.3,
    "review_count": 325,
    "verified": true,
    "type": "Private Practice",
    "doctors": [
      "Dr. Jane Doe",
      "Dr. Emily Smith"
    ],
    "description": "A private psychiatric practice in Metro City, specializing in advanced neuromodulation and personalized mental health care."
  },
  {
    "id": "wv-metrocity-6",
    "name": "Dr. Sarah Lee Psychiatry",
    "slug": "dr-sarah-lee-psychiatry-metro-city",
    "address": "1560 Main St, Ste 415",
    "city": "Metro City",
    "county": "Metro County",
    "state": "WV",
    "zip": "14013",
    "geo": {
      "lat": 37.989318068030876,
      "lng": -96.74704164661999
    },
    "phone": "(555) 779-8983",
    "website": "https://example.com",
    "machines": [
      "MagVenture",
      "NeuroStar"
    ],
    "specialties": [
      "PTSD",
      "OCD",
      "Bipolar"
    ],
    "insurances": [
      "Cigna",
      "UnitedHealthcare",
      "Tricare",
      "Medicare",
      "Medicaid",
      "Aetna"
    ],
    "logo_url": "https://placehold.co/200x200/png?text=D",
    "hero_image_url": "https://placehold.co/1200x600/e2e8f0/475569?text=Dr.+Sarah+Lee+Psychiatry",
    "rating": 4.3,
    "review_count": 25,
    "verified": false,
    "type": "Private Practice",
    "doctors": [
      "Dr. John Doe",
      "Dr. Robert Smith"
    ],
    "description": "A private psychiatric practice in Metro City, specializing in advanced neuromodulation and personalized mental health care."
  },
  {
    "id": "wv-metrocity-7",
    "name": "Dr. Lisa Patel Psychiatry",
    "slug": "dr-lisa-patel-psychiatry-metro-city",
    "address": "9458 Oak St, Ste 395",
    "city": "Metro City",
    "county": "Metro County",
    "state": "WV",
    "zip": "52735",
    "geo": {
      "lat": 30.61349793576695,
      "lng": -99.78562198669003
    },
    "phone": "(555) 607-2067",
    "website": "https://example.com",
    "machines": [
      "BrainsWay",
      "MagVenture"
    ],
    "specialties": [
      "OCD",
      "Anxiety",
      "Chronic Pain",
      "PTSD",
      "Bipolar"
    ],
    "insurances": [
      "Tricare",
      "Medicaid",
      "UnitedHealthcare",
      "Cigna",
      "BlueCross"
    ],
    "logo_url": "https://placehold.co/200x200/png?text=D",
    "hero_image_url": "https://placehold.co/1200x600/e2e8f0/475569?text=Dr.+Lisa+Patel+Psychiatry",
    "rating": 4.7,
    "review_count": 290,
    "verified": true,
    "type": "Private Practice",
    "doctors": [
      "Dr. John Doe",
      "Dr. Emily Smith"
    ],
    "description": "A private psychiatric practice in Metro City, specializing in advanced neuromodulation and personalized mental health care."
  },
  {
    "id": "wv-metrocity-8",
    "name": "Metro City TMS & Wellness Center 4",
    "slug": "metro-city-tms-&-wellness-center-4-metro-city",
    "address": "3523 Main St, Ste 312",
    "city": "Metro City",
    "county": "Metro County",
    "state": "WV",
    "zip": "47709",
    "geo": {
      "lat": 32.01392388278756,
      "lng": -90.79278093806495
    },
    "phone": "(555) 171-6038",
    "website": "https://example.com",
    "machines": [
      "Magstim",
      "BrainsWay"
    ],
    "specialties": [
      "Depression",
      "Bipolar",
      "PTSD"
    ],
    "insurances": [
      "Medicare",
      "UnitedHealthcare",
      "Aetna",
      "Cigna",
      "BlueCross"
    ],
    "logo_url": "https://placehold.co/200x200/png?text=M",
    "hero_image_url": "https://placehold.co/1200x600/e2e8f0/475569?text=Metro+City+TMS+&+Wellness+Center+4",
    "rating": 4.6,
    "review_count": 420,
    "verified": true,
    "type": "Medical Clinic",
    "doctors": [
      "Dr. Jane Doe",
      "Dr. Emily Smith"
    ],
    "description": "Leading mental health clinic in Metro County offering FDA-cleared TMS therapy for depression and OCD."
  },
  {
    "id": "wv-metrocity-9",
    "name": "Metro City TMS & Wellness Center 5",
    "slug": "metro-city-tms-&-wellness-center-5-metro-city",
    "address": "7024 Oak St, Ste 123",
    "city": "Metro City",
    "county": "Metro County",
    "state": "WV",
    "zip": "24265",
    "geo": {
      "lat": 31.00362767125368,
      "lng": -99.21209306887597
    },
    "phone": "(555) 595-6333",
    "website": "https://example.com",
    "machines": [
      "Magstim"
    ],
    "specialties": [
      "OCD",
      "Chronic Pain",
      "PTSD",
      "Bipolar"
    ],
    "insurances": [
      "BlueCross",
      "Cigna",
      "Medicare",
      "UnitedHealthcare",
      "Tricare",
      "Medicaid"
    ],
    "logo_url": "https://placehold.co/200x200/png?text=M",
    "hero_image_url": "https://placehold.co/1200x600/e2e8f0/475569?text=Metro+City+TMS+&+Wellness+Center+5",
    "rating": 4.9,
    "review_count": 77,
    "verified": false,
    "type": "Medical Clinic",
    "doctors": [
      "Dr. John Doe",
      "Dr. Emily Smith"
    ],
    "description": "Leading mental health clinic in Metro County offering FDA-cleared TMS therapy for depression and OCD."
  }
]