[
  {
    "id": "or-capitalcity-1",
    "name": "Capital City TMS & Wellness Center 1",
    "slug": "capital-city-tms-&-wellness-center-1-capital-city",
    "address": "1596 Oak St, Ste 426",
    "city": "Capital City",
    "county": "Main County",
    "state": "OR",
    "zip": "52034",
    "geo": {
      "lat": 36.952656841787636,
      "lng": -91.72034854790725
    },
    "phone": "(555) 312-1215",
    "website": "https://example.com",
    "machines": [
      "BrainsWay"
    ],
    "specialties": [
      "Anxiety",
      "Bipolar",
      "Chronic Pain"
    ],
    "insurances": [
      "Medicaid",
      "Medicare",
      "BlueCross"
    ],
    "logo_url": "https://placehold.co/200x200/png?text=C",
    "hero_image_url": "https://placehold.co/1200x600/e2e8f0/475569?text=Capital+City+TMS+&+Wellness+Center+1",
    "rating": 4.3,
    "review_count": 170,
    "verified": true,
    "type": "Medical Clinic",
    "doctors": [
      "Dr. John Doe",
      "Dr. Emily Smith"
    ],
    "description": "Leading mental health clinic in Main County offering FDA-cleared TMS therapy for depression and OCD."
  },
  {
    "id": "or-capitalcity-2",
    "name": "Dr. Lisa Johnson Psychiatry",
    "slug": "dr-lisa-johnson-psychiatry-capital-city",
    "address": "6399 Oak St, Ste 299",
    "city": "Capital City",
    "county": "Main County",
    "state": "OR",
    "zip": "75431",
    "geo": {
      "lat": 35.069647672215396,
      "lng": -90.09140457215274
    },
    "phone": "(555) 693-7483",
    "website": "https://example.com",
    "machines": [
      "CloudTMS"
    ],
    "specialties": [
      "PTSD",
      "Bipolar",
      "Chronic Pain",
      "OCD",
      "Depression"
    ],
    "insurances": [
      "Medicare",
      "Tricare",
      "Medicaid",
      "Cigna",
      "UnitedHealthcare",
      "BlueCross"
    ],
    "logo_url": "https://placehold.co/200x200/png?text=D",
    "hero_image_url": "https://placehold.co/1200x600/e2e8f0/475569?text=Dr.+Lisa+Johnson+Psychiatry",
    "rating": 4.6,
    "review_count": 233,
    "verified": true,
    "type": "Private Practice",
    "doctors": [
      "Dr. Jane Doe",
      "Dr. Robert Smith"
    ],
    "description": "A private psychiatric practice in Capital City, specializing in advanced neuromodulation and personalized mental health care."
  },
  {
    "id": "or-capitalcity-3",
    "name": "Capital City TMS & Wellness Center 3",
    "slug": "capital-city-tms-&-wellness-center-3-capital-city",
    "address": "9824 Oak St, Ste 347",
    "city": "Capital City",
    "county": "Main County",
    "state": "OR",
    "zip": "33222",
    "geo": {
      "lat": 39.54038641727229,
      "lng": -95.95427222005372
    },
    "phone": "(555) 561-5029",
    "website": "https://example.com",
    "machines": [
      "NeuroStar",
      "MagVenture"
    ],
    "specialties": [
      "PTSD",
      "Depression",
      "Bipolar"
    ],
    "insurances": [
      "Medicare",
      "BlueCross",
      "Cigna",
      "Medicaid",
      "Tricare",
      "UnitedHealthcare"
    ],
    "logo_url": "https://placehold.co/200x200/png?text=C",
    "hero_image_url": "https://placehold.co/1200x600/e2e8f0/475569?text=Capital+City+TMS+&+Wellness+Center+3",
    "rating": 4.7,
    "review_count": 123,
    "verified": true,
    "type": "Medical Clinic",
    "doctors": [
      "Dr. Jane Doe",
      "Dr. Robert Smith"
    ],
    "description": "Leading mental health clinic in Main County offering FDA-cleared TMS therapy for depression and OCD."
  },
  {
    "id": "or-capitalcity-4",
    "name": "Capital City TMS & Wellness Center 4",
    "slug": "capital-city-tms-&-wellness-center-4-capital-city",
    "address": "4315 Maple St, Ste 148",
    "city": "Capital City",
    "county": "Main County",
    "state": "OR",
    "zip": "48226",
    "geo": {
      "lat": 38.11600147931355,
      "lng": -98.25838800933674
    },
    "phone": "(555) 660-8740",
    "website": "https://example.com",
    "machines": [
      "Magstim"
    ],
    "specialties": [
      "Bipolar",
      "Anxiety",
      "Chronic Pain",
      "OCD"
    ],
    "insurances": [
      "UnitedHealthcare",
      "Medicare",
      "Tricare",
      "Medicaid",
      "BlueCross",
      "Cigna"
    ],
    "logo_url": "https://placehold.co/200x200/png?text=C",
    "hero_image_url": "https://placehold.co/1200x600/e2e8f0/475569?text=Capital+City+TMS+&+Wellness+Center+4",
    "rating": 4.2,
    "review_count": 37,
    "verified": true,
    "type": "Medical Clinic",
    "doctors": [
      "Dr. John Doe",
      "Dr. Emily Smith"
    ],
    "description": "Leading mental health clinic in Main County offering FDA-cleared TMS therapy for depression and OCD."
  },
  {
    "id": "or-metrocity-5",
    "name": "Dr. Jennifer Lee Psychiatry",
    "slug": "dr-jennifer-lee-psychiatry-metro-city",
    "address": "6887 Maple St, Ste 455",
    "city": "Metro City",
    "county": "Metro County",
    "state": "OR",
    "zip": "96024",
    "geo": {
      "lat": 32.40541835616999,
      "lng": -93.33110212524075
    },
    "phone": "(555) 299-2496",
    "website": "https://example.com",
    "machines": [
      "BrainsWay"
    ],
    "specialties": [
      "OCD",
      "Anxiety",
      "PTSD"
    ],
    "insurances": [
      "Cigna",
      "Medicaid",
      "BlueCross",
      "UnitedHealthcare"
    ],
    "logo_url": "https://placehold.co/200x200/png?text=D",
    "hero_image_url": "https://placehold.co/1200x600/e2e8f0/475569?text=Dr.+Jennifer+Lee+Psychiatry",
    "rating": 4.6,
    "review_count": 261,
    "verified": true,
    "type": "Private Practice",
    "doctors": [
      "Dr. Jane Doe",
      "Dr. Robert Smith"
    ],
    "description": "A private psychiatric practice in Metro City, specializing in advanced neuromodulation and personalized mental health care."
  },
  {
    "id": "or-metrocity-6",
    "name": "Dr. Alan Patel Psychiatry",
    "slug": "dr-alan-patel-psychiatry-metro-city",
    "address": "9989 Main St, Ste 354",
    "city": "Metro City",
    "county": "Metro County",
    "state": "OR",
    "zip": "36003",
    "geo": {
      "lat": 36.50475874400993,
      "lng": -94.82594961422853
    },
    "phone": "(555) 700-5169",
    "website": "https://example.com",
    "machines": [
      "BrainsWay"
    ],
    "specialties": [
      "PTSD",
      "Anxiety",
      "OCD"
    ],
    "insurances": [
      "Medicare",
      "BlueCross",
      "Aetna",
      "Cigna",
      "Tricare"
    ],
    "logo_url": "https://placehold.co/200x200/png?text=D",
    "hero_image_url": "https://placehold.co/1200x600/e2e8f0/475569?text=Dr.+Alan+Patel+Psychiatry",
    "rating": 4.3,
    "review_count": 426,
    "verified": true,
    "type": "Private Practice",
    "doctors": [
      "Dr. John Doe",
      "Dr. Emily Smith"
    ],
    "description": "A private psychiatric practice in Metro City, specializing in advanced neuromodulation and personalized mental health care."
  },
  {
    "id": "or-metrocity-7",
    "name": "Metro City TMS & Wellness Center 3",
    "slug": "metro-city-tms-&-wellness-center-3-metro-city",
    "address": "6905 Cedar St, Ste 303",
    "city": "Metro City",
    "county": "Metro County",
    "state": "OR",
    "zip": "50757",
    "geo": {
      "lat": 35.74696804928948,
      "lng": -97.6166787369007
    },
    "phone": "(555) 587-6699",
    "website": "https://example.com",
    "machines": [
      "Magstim",
      "CloudTMS"
    ],
    "specialties": [
      "Bipolar",
      "Anxiety",
      "Depression",
      "PTSD"
    ],
    "insurances": [
      "Medicare",
      "Tricare",
      "Medicaid",
      "Cigna",
      "BlueCross",
      "UnitedHealthcare"
    ],
    "logo_url": "https://placehold.co/200x200/png?text=M",
    "hero_image_url": "https://placehold.co/1200x600/e2e8f0/475569?text=Metro+City+TMS+&+Wellness+Center+3",
    "rating": 4.6,
    "review_count": 295,
    "verified": false,
    "type": "Medical Clinic",
    "doctors": [
      "Dr. Jane Doe",
      "Dr. Robert Smith"
    ],
    "description": "Leading mental health clinic in Metro County offering FDA-cleared TMS therapy for depression and OCD."
  },
  {
    "id": "or-metrocity-8",
    "name": "Metro City TMS & Wellness Center 4",
    "slug": "metro-city-tms-&-wellness-center-4-metro-city",
    "address": "9044 Oak St, Ste 154",
    "city": "Metro City",
    "county": "Metro County",
    "state": "OR",
    "zip": "90012",
    "geo": {
      "lat": 39.1423676382325,
      "lng": -93.23041160571881
    },
    "phone": "(555) 392-8726",
    "website": "https://example.com",
    "machines": [
      "BrainsWay"
    ],
    "specialties": [
      "Anxiety",
      "Chronic Pain",
      "PTSD",
      "Depression"
    ],
    "insurances": [
      "Tricare",
      "Aetna",
      "Medicare",
      "Cigna",
      "BlueCross",
      "UnitedHealthcare"
    ],
    "logo_url": "https://placehold.co/200x200/png?text=M",
    "hero_image_url": "https://placehold.co/1200x600/e2e8f0/475569?text=Metro+City+TMS+&+Wellness+Center+4",
    "rating": 4.7,
    "review_count": 32,
    "verified": false,
    "type": "Medical Clinic",
    "doctors": [
      "Dr. John Doe",
      "Dr. Robert Smith"
    ],
    "description": "Leading mental health clinic in Metro County offering FDA-cleared TMS therapy for depression and OCD."
  }
]