[
  {
    "id": "de-capitalcity-1",
    "name": "Dr. David Garcia Psychiatry",
    "slug": "dr-david-garcia-psychiatry-capital-city",
    "address": "3863 Maple St, Ste 288",
    "city": "Capital City",
    "county": "Main County",
    "state": "DE",
    "zip": "51682",
    "geo": {
      "lat": 39.953769381402964,
      "lng": -95.28176312950589
    },
    "phone": "(555) 941-4958",
    "website": "https://example.com",
    "machines": [
      "Magstim"
    ],
    "specialties": [
      "OCD",
      "Anxiety",
      "Bipolar"
    ],
    "insurances": [
      "Cigna",
      "UnitedHealthcare",
      "Medicare",
      "Medicaid",
      "Tricare"
    ],
    "logo_url": "https://placehold.co/200x200/png?text=D",
    "hero_image_url": "https://placehold.co/1200x600/e2e8f0/475569?text=Dr.+David+Garcia+Psychiatry",
    "rating": 4.1,
    "review_count": 428,
    "verified": true,
    "type": "Private Practice",
    "doctors": [
      "Dr. Jane Doe",
      "Dr. Emily Smith"
    ],
    "description": "A private psychiatric practice in Capital City, specializing in advanced neuromodulation and personalized mental health care."
  },
  {
    "id": "de-capitalcity-2",
    "name": "Capital City TMS & Wellness Center 2",
    "slug": "capital-city-tms-&-wellness-center-2-capital-city",
    "address": "9231 Main St, Ste 487",
    "city": "Capital City",
    "county": "Main County",
    "state": "DE",
    "zip": "50761",
    "geo": {
      "lat": 30.126301121967085,
      "lng": -93.8593663870037
    },
    "phone": "(555) 295-9686",
    "website": "https://example.com",
    "machines": [
      "Nexstim",
      "BrainsWay"
    ],
    "specialties": [
      "Depression",
      "OCD",
      "PTSD",
      "Chronic Pain"
    ],
    "insurances": [
      "UnitedHealthcare",
      "Medicaid",
      "Tricare",
      "BlueCross"
    ],
    "logo_url": "https://placehold.co/200x200/png?text=C",
    "hero_image_url": "https://placehold.co/1200x600/e2e8f0/475569?text=Capital+City+TMS+&+Wellness+Center+2",
    "rating": 4.9,
    "review_count": 317,
    "verified": false,
    "type": "Medical Clinic",
    "doctors": [
      "Dr. Jane Doe",
      "Dr. Robert Smith"
    ],
    "description": "Leading mental health clinic in Main County offering FDA-cleared TMS therapy for depression and OCD."
  },
  {
    "id": "de-capitalcity-3",
    "name": "Capital City TMS & Wellness Center 3",
    "slug": "capital-city-tms-&-wellness-center-3-capital-city",
    "address": "9297 Main St, Ste 231",
    "city": "Capital City",
    "county": "Main County",
    "state": "DE",
    "zip": "29467",
    "geo": {
      "lat": 38.456659433676634,
      "lng": -93.82750017109578
    },
    "phone": "(555) 444-2961",
    "website": "https://example.com",
    "machines": [
      "CloudTMS",
      "NeuroStar"
    ],
    "specialties": [
      "Anxiety",
      "Chronic Pain",
      "PTSD",
      "Depression"
    ],
    "insurances": [
      "UnitedHealthcare",
      "Tricare",
      "Medicaid",
      "Aetna",
      "Medicare"
    ],
    "logo_url": "https://placehold.co/200x200/png?text=C",
    "hero_image_url": "https://placehold.co/1200x600/e2e8f0/475569?text=Capital+City+TMS+&+Wellness+Center+3",
    "rating": 4.5,
    "review_count": 175,
    "verified": false,
    "type": "Medical Clinic",
    "doctors": [
      "Dr. Jane Doe",
      "Dr. Robert Smith"
    ],
    "description": "Leading mental health clinic in Main County offering FDA-cleared TMS therapy for depression and OCD."
  },
  {
    "id": "de-metrocity-4",
    "name": "Metro City TMS & Wellness Center 1",
    "slug": "metro-city-tms-&-wellness-center-1-metro-city",
    "address": "484 Maple St, Ste 376",
    "city": "Metro City",
    "county": "Metro County",
    "state": "DE",
    "zip": "63487",
    "geo": {
      "lat": 38.75206804260719,
      "lng": -96.86760933108619
    },
    "phone": "(555) 438-1165",
    "website": "https://example.com",
    "machines": [
      "CloudTMS"
    ],
    "specialties": [
      "Bipolar",
      "Chronic Pain",
      "OCD"
    ],
    "insurances": [
      "Tricare",
      "Medicare",
      "Medicaid",
      "UnitedHealthcare"
    ],
    "logo_url": "https://placehold.co/200x200/png?text=M",
    "hero_image_url": "https://placehold.co/1200x600/e2e8f0/475569?text=Metro+City+TMS+&+Wellness+Center+1",
    "rating": 4.9,
    "review_count": 377,
    "verified": false,
    "type": "Medical Clinic",
    "doctors": [
      "Dr. Jane Doe",
      "Dr. Robert Smith"
    ],
    "description": "Leading mental health clinic in Metro County offering FDA-cleared TMS therapy for depression and OCD."
  },
  {
    "id": "de-metrocity-5",
    "name": "Dr. Sarah Smith Psychiatry",
    "slug": "dr-sarah-smith-psychiatry-metro-city",
    "address": "7312 Cedar St, Ste 354",
    "city": "Metro City",
    "county": "Metro County",
    "state": "DE",
    "zip": "66704",
    "geo": {
      "lat": 36.181056562571214,
      "lng": -90.72661128178731
    },
    "phone": "(555) 127-4733",
    "website": "https://example.com",
    "machines": [
      "CloudTMS"
    ],
    "specialties": [
      "OCD",
      "Depression",
      "PTSD",
      "Anxiety",
      "Bipolar"
    ],
    "insurances": [
      "Medicare",
      "BlueCross",
      "Medicaid",
      "UnitedHealthcare"
    ],
    "logo_url": "https://placehold.co/200x200/png?text=D",
    "hero_image_url": "https://placehold.co/1200x600/e2e8f0/475569?text=Dr.+Sarah+Smith+Psychiatry",
    "rating": 4.8,
    "review_count": 385,
    "verified": false,
    "type": "Private Practice",
    "doctors": [
      "Dr. John Doe",
      "Dr. Robert Smith"
    ],
    "description": "A private psychiatric practice in Metro City, specializing in advanced neuromodulation and personalized mental health care."
  },
  {
    "id": "de-metrocity-6",
    "name": "Metro City TMS & Wellness Center 3",
    "slug": "metro-city-tms-&-wellness-center-3-metro-city",
    "address": "8135 Oak St, Ste 377",
    "city": "Metro City",
    "county": "Metro County",
    "state": "DE",
    "zip": "38322",
    "geo": {
      "lat": 31.49066982548662,
      "lng": -94.80675694730375
    },
    "phone": "(555) 965-2851",
    "website": "https://example.com",
    "machines": [
      "Magstim",
      "MagVenture"
    ],
    "specialties": [
      "PTSD",
      "Bipolar",
      "Chronic Pain"
    ],
    "insurances": [
      "Cigna",
      "Tricare",
      "UnitedHealthcare",
      "Aetna",
      "BlueCross",
      "Medicaid"
    ],
    "logo_url": "https://placehold.co/200x200/png?text=M",
    "hero_image_url": "https://placehold.co/1200x600/e2e8f0/475569?text=Metro+City+TMS+&+Wellness+Center+3",
    "rating": 4.2,
    "review_count": 293,
    "verified": false,
    "type": "Medical Clinic",
    "doctors": [
      "Dr. Jane Doe",
      "Dr. Robert Smith"
    ],
    "description": "Leading mental health clinic in Metro County offering FDA-cleared TMS therapy for depression and OCD."
  }
]