[
  {
    "id": "ms-capitalcity-1",
    "name": "Capital City TMS & Wellness Center 1",
    "slug": "capital-city-tms-&-wellness-center-1-capital-city",
    "address": "8585 Cedar St, Ste 395",
    "city": "Capital City",
    "county": "Main County",
    "state": "MS",
    "zip": "85539",
    "geo": {
      "lat": 31.924950721368187,
      "lng": -98.09958925876568
    },
    "phone": "(555) 763-9945",
    "website": "https://example.com",
    "machines": [
      "BrainsWay",
      "Nexstim"
    ],
    "specialties": [
      "Chronic Pain",
      "PTSD",
      "OCD"
    ],
    "insurances": [
      "BlueCross",
      "Medicaid",
      "UnitedHealthcare",
      "Aetna"
    ],
    "logo_url": "https://placehold.co/200x200/png?text=C",
    "hero_image_url": "https://placehold.co/1200x600/e2e8f0/475569?text=Capital+City+TMS+&+Wellness+Center+1",
    "rating": 4.7,
    "review_count": 366,
    "verified": true,
    "type": "Medical Clinic",
    "doctors": [
      "Dr. Jane Doe",
      "Dr. Robert Smith"
    ],
    "description": "Leading mental health clinic in Main County offering FDA-cleared TMS therapy for depression and OCD."
  },
  {
    "id": "ms-capitalcity-2",
    "name": "Capital City TMS & Wellness Center 2",
    "slug": "capital-city-tms-&-wellness-center-2-capital-city",
    "address": "8703 Main St, Ste 407",
    "city": "Capital City",
    "county": "Main County",
    "state": "MS",
    "zip": "99308",
    "geo": {
      "lat": 36.32904547901372,
      "lng": -97.58393863785875
    },
    "phone": "(555) 708-5307",
    "website": "https://example.com",
    "machines": [
      "NeuroStar"
    ],
    "specialties": [
      "OCD",
      "Anxiety",
      "PTSD",
      "Chronic Pain"
    ],
    "insurances": [
      "Aetna",
      "BlueCross",
      "Medicare",
      "UnitedHealthcare",
      "Medicaid"
    ],
    "logo_url": "https://placehold.co/200x200/png?text=C",
    "hero_image_url": "https://placehold.co/1200x600/e2e8f0/475569?text=Capital+City+TMS+&+Wellness+Center+2",
    "rating": 4.8,
    "review_count": 264,
    "verified": false,
    "type": "Medical Clinic",
    "doctors": [
      "Dr. John Doe",
      "Dr. Robert Smith"
    ],
    "description": "Leading mental health clinic in Main County offering FDA-cleared TMS therapy for depression and OCD."
  },
  {
    "id": "ms-capitalcity-3",
    "name": "Dr. Michael Garcia Psychiatry",
    "slug": "dr-michael-garcia-psychiatry-capital-city",
    "address": "1684 Maple St, Ste 240",
    "city": "Capital City",
    "county": "Main County",
    "state": "MS",
    "zip": "85872",
    "geo": {
      "lat": 30.24241711622978,
      "lng": -96.65464833818064
    },
    "phone": "(555) 692-3912",
    "website": "https://example.com",
    "machines": [
      "Magstim",
      "BrainsWay"
    ],
    "specialties": [
      "Depression",
      "Bipolar",
      "PTSD",
      "Chronic Pain",
      "OCD"
    ],
    "insurances": [
      "UnitedHealthcare",
      "Medicare",
      "BlueCross"
    ],
    "logo_url": "https://placehold.co/200x200/png?text=D",
    "hero_image_url": "https://placehold.co/1200x600/e2e8f0/475569?text=Dr.+Michael+Garcia+Psychiatry",
    "rating": 4.9,
    "review_count": 347,
    "verified": true,
    "type": "Private Practice",
    "doctors": [
      "Dr. Jane Doe",
      "Dr. Robert Smith"
    ],
    "description": "A private psychiatric practice in Capital City, specializing in advanced neuromodulation and personalized mental health care."
  },
  {
    "id": "ms-capitalcity-4",
    "name": "Capital City TMS & Wellness Center 4",
    "slug": "capital-city-tms-&-wellness-center-4-capital-city",
    "address": "2542 Oak St, Ste 257",
    "city": "Capital City",
    "county": "Main County",
    "state": "MS",
    "zip": "55486",
    "geo": {
      "lat": 32.24080859669681,
      "lng": -93.08726823894884
    },
    "phone": "(555) 250-1657",
    "website": "https://example.com",
    "machines": [
      "Magstim"
    ],
    "specialties": [
      "PTSD",
      "Depression",
      "Anxiety",
      "OCD",
      "Chronic Pain"
    ],
    "insurances": [
      "Medicaid",
      "Cigna",
      "BlueCross"
    ],
    "logo_url": "https://placehold.co/200x200/png?text=C",
    "hero_image_url": "https://placehold.co/1200x600/e2e8f0/475569?text=Capital+City+TMS+&+Wellness+Center+4",
    "rating": 4.1,
    "review_count": 80,
    "verified": false,
    "type": "Medical Clinic",
    "doctors": [
      "Dr. Jane Doe",
      "Dr. Emily Smith"
    ],
    "description": "Leading mental health clinic in Main County offering FDA-cleared TMS therapy for depression and OCD."
  },
  {
    "id": "ms-capitalcity-5",
    "name": "Capital City TMS & Wellness Center 5",
    "slug": "capital-city-tms-&-wellness-center-5-capital-city",
    "address": "5415 Main St, Ste 226",
    "city": "Capital City",
    "county": "Main County",
    "state": "MS",
    "zip": "63020",
    "geo": {
      "lat": 39.880066643963,
      "lng": -97.60629635865072
    },
    "phone": "(555) 248-9053",
    "website": "https://example.com",
    "machines": [
      "Magstim"
    ],
    "specialties": [
      "Depression",
      "Chronic Pain",
      "OCD"
    ],
    "insurances": [
      "Aetna",
      "Tricare",
      "Medicare"
    ],
    "logo_url": "https://placehold.co/200x200/png?text=C",
    "hero_image_url": "https://placehold.co/1200x600/e2e8f0/475569?text=Capital+City+TMS+&+Wellness+Center+5",
    "rating": 5.0,
    "review_count": 118,
    "verified": true,
    "type": "Medical Clinic",
    "doctors": [
      "Dr. John Doe",
      "Dr. Emily Smith"
    ],
    "description": "Leading mental health clinic in Main County offering FDA-cleared TMS therapy for depression and OCD."
  },
  {
    "id": "ms-capitalcity-6",
    "name": "Dr. David Lee Psychiatry",
    "slug": "dr-david-lee-psychiatry-capital-city",
    "address": "8898 Main St, Ste 352",
    "city": "Capital City",
    "county": "Main County",
    "state": "MS",
    "zip": "41187",
    "geo": {
      "lat": 36.87129616393976,
      "lng": -91.33790647282085
    },
    "phone": "(555) 836-6616",
    "website": "https://example.com",
    "machines": [
      "BrainsWay",
      "Nexstim"
    ],
    "specialties": [
      "PTSD",
      "Chronic Pain",
      "Bipolar",
      "Depression"
    ],
    "insurances": [
      "Cigna",
      "BlueCross",
      "Medicare"
    ],
    "logo_url": "https://placehold.co/200x200/png?text=D",
    "hero_image_url": "https://placehold.co/1200x600/e2e8f0/475569?text=Dr.+David+Lee+Psychiatry",
    "rating": 4.9,
    "review_count": 334,
    "verified": true,
    "type": "Private Practice",
    "doctors": [
      "Dr. Jane Doe",
      "Dr. Robert Smith"
    ],
    "description": "A private psychiatric practice in Capital City, specializing in advanced neuromodulation and personalized mental health care."
  },
  {
    "id": "ms-metrocity-7",
    "name": "Metro City TMS & Wellness Center 1",
    "slug": "metro-city-tms-&-wellness-center-1-metro-city",
    "address": "5140 Main St, Ste 292",
    "city": "Metro City",
    "county": "Metro County",
    "state": "MS",
    "zip": "79868",
    "geo": {
      "lat": 39.263993318689856,
      "lng": -93.2725557795423
    },
    "phone": "(555) 739-8423",
    "website": "https://example.com",
    "machines": [
      "CloudTMS"
    ],
    "specialties": [
      "Chronic Pain",
      "Bipolar",
      "Depression"
    ],
    "insurances": [
      "BlueCross",
      "Tricare",
      "Medicare"
    ],
    "logo_url": "https://placehold.co/200x200/png?text=M",
    "hero_image_url": "https://placehold.co/1200x600/e2e8f0/475569?text=Metro+City+TMS+&+Wellness+Center+1",
    "rating": 4.1,
    "review_count": 431,
    "verified": false,
    "type": "Medical Clinic",
    "doctors": [
      "Dr. Jane Doe",
      "Dr. Emily Smith"
    ],
    "description": "Leading mental health clinic in Metro County offering FDA-cleared TMS therapy for depression and OCD."
  },
  {
    "id": "ms-metrocity-8",
    "name": "Metro City TMS & Wellness Center 2",
    "slug": "metro-city-tms-&-wellness-center-2-metro-city",
    "address": "2101 Main St, Ste 455",
    "city": "Metro City",
    "county": "Metro County",
    "state": "MS",
    "zip": "16439",
    "geo": {
      "lat": 30.364043322848005,
      "lng": -97.69013256536752
    },
    "phone": "(555) 194-3614",
    "website": "https://example.com",
    "machines": [
      "MagVenture",
      "NeuroStar"
    ],
    "specialties": [
      "Depression",
      "Bipolar",
      "Anxiety",
      "PTSD"
    ],
    "insurances": [
      "Medicare",
      "Aetna",
      "Medicaid"
    ],
    "logo_url": "https://placehold.co/200x200/png?text=M",
    "hero_image_url": "https://placehold.co/1200x600/e2e8f0/475569?text=Metro+City+TMS+&+Wellness+Center+2",
    "rating": 4.3,
    "review_count": 183,
    "verified": true,
    "type": "Medical Clinic",
    "doctors": [
      "Dr. Jane Doe",
      "Dr. Emily Smith"
    ],
    "description": "Leading mental health clinic in Metro County offering FDA-cleared TMS therapy for depression and OCD."
  },
  {
    "id": "ms-metrocity-9",
    "name": "Metro City TMS & Wellness Center 3",
    "slug": "metro-city-tms-&-wellness-center-3-metro-city",
    "address": "2246 Cedar St, Ste 110",
    "city": "Metro City",
    "county": "Metro County",
    "state": "MS",
    "zip": "95398",
    "geo": {
      "lat": 30.606462817543555,
      "lng": -90.14328281495867
    },
    "phone": "(555) 606-4197",
    "website": "https://example.com",
    "machines": [
      "Nexstim"
    ],
    "specialties": [
      "Bipolar",
      "Anxiety",
      "Depression",
      "Chronic Pain",
      "OCD"
    ],
    "insurances": [
      "UnitedHealthcare",
      "Aetna",
      "Tricare",
      "Medicaid",
      "Cigna"
    ],
    "logo_url": "https://placehold.co/200x200/png?text=M",
    "hero_image_url": "https://placehold.co/1200x600/e2e8f0/475569?text=Metro+City+TMS+&+Wellness+Center+3",
    "rating": 4.1,
    "review_count": 180,
    "verified": true,
    "type": "Medical Clinic",
    "doctors": [
      "Dr. John Doe",
      "Dr. Robert Smith"
    ],
    "description": "Leading mental health clinic in Metro County offering FDA-cleared TMS therapy for depression and OCD."
  }
]