[
  {
    "id": "ar-capitalcity-1",
    "name": "Capital City TMS & Wellness Center 1",
    "slug": "capital-city-tms-&-wellness-center-1-capital-city",
    "address": "4966 Oak St, Ste 272",
    "city": "Capital City",
    "county": "Main County",
    "state": "AR",
    "zip": "55091",
    "geo": {
      "lat": 32.4498878471222,
      "lng": -98.8366496001108
    },
    "phone": "(555) 935-7735",
    "website": "https://example.com",
    "machines": [
      "CloudTMS"
    ],
    "specialties": [
      "OCD",
      "Depression",
      "PTSD",
      "Chronic Pain"
    ],
    "insurances": [
      "BlueCross",
      "Medicare",
      "Medicaid",
      "Cigna",
      "UnitedHealthcare"
    ],
    "logo_url": "https://placehold.co/200x200/png?text=C",
    "hero_image_url": "https://placehold.co/1200x600/e2e8f0/475569?text=Capital+City+TMS+&+Wellness+Center+1",
    "rating": 4.1,
    "review_count": 211,
    "verified": false,
    "type": "Medical Clinic",
    "doctors": [
      "Dr. Jane Doe",
      "Dr. Robert Smith"
    ],
    "description": "Leading mental health clinic in Main County offering FDA-cleared TMS therapy for depression and OCD."
  },
  {
    "id": "ar-capitalcity-2",
    "name": "Dr. Alan Patel Psychiatry",
    "slug": "dr-alan-patel-psychiatry-capital-city",
    "address": "1259 Maple St, Ste 253",
    "city": "Capital City",
    "county": "Main County",
    "state": "AR",
    "zip": "76051",
    "geo": {
      "lat": 30.686148203388786,
      "lng": -99.07662341567311
    },
    "phone": "(555) 534-1283",
    "website": "https://example.com",
    "machines": [
      "NeuroStar"
    ],
    "specialties": [
      "Chronic Pain",
      "PTSD",
      "Depression"
    ],
    "insurances": [
      "Aetna",
      "UnitedHealthcare",
      "Medicare",
      "Medicaid",
      "Cigna",
      "BlueCross"
    ],
    "logo_url": "https://placehold.co/200x200/png?text=D",
    "hero_image_url": "https://placehold.co/1200x600/e2e8f0/475569?text=Dr.+Alan+Patel+Psychiatry",
    "rating": 4.7,
    "review_count": 395,
    "verified": false,
    "type": "Private Practice",
    "doctors": [
      "Dr. Jane Doe",
      "Dr. Emily Smith"
    ],
    "description": "A private psychiatric practice in Capital City, specializing in advanced neuromodulation and personalized mental health care."
  },
  {
    "id": "ar-capitalcity-3",
    "name": "Capital City TMS & Wellness Center 3",
    "slug": "capital-city-tms-&-wellness-center-3-capital-city",
    "address": "3944 Maple St, Ste 246",
    "city": "Capital City",
    "county": "Main County",
    "state": "AR",
    "zip": "79711",
    "geo": {
      "lat": 37.10139972066479,
      "lng": -92.70613194081056
    },
    "phone": "(555) 203-8394",
    "website": "https://example.com",
    "machines": [
      "NeuroStar",
      "BrainsWay"
    ],
    "specialties": [
      "Anxiety",
      "OCD",
      "Chronic Pain",
      "Bipolar"
    ],
    "insurances": [
      "Medicaid",
      "BlueCross",
      "Aetna",
      "UnitedHealthcare"
    ],
    "logo_url": "https://placehold.co/200x200/png?text=C",
    "hero_image_url": "https://placehold.co/1200x600/e2e8f0/475569?text=Capital+City+TMS+&+Wellness+Center+3",
    "rating": 4.0,
    "review_count": 151,
    "verified": false,
    "type": "Medical Clinic",
    "doctors": [
      "Dr. John Doe",
      "Dr. Emily Smith"
    ],
    "description": "Leading mental health clinic in Main County offering FDA-cleared TMS therapy for depression and OCD."
  },
  {
    "id": "ar-capitalcity-4",
    "name": "Capital City TMS & Wellness Center 4",
    "slug": "capital-city-tms-&-wellness-center-4-capital-city",
    "address": "4769 Main St, Ste 132",
    "city": "Capital City",
    "county": "Main County",
    "state": "AR",
    "zip": "51237",
    "geo": {
      "lat": 39.89899609804134,
      "lng": -97.73253566140554
    },
    "phone": "(555) 198-6354",
    "website": "https://example.com",
    "machines": [
      "Nexstim",
      "BrainsWay"
    ],
    "specialties": [
      "PTSD",
      "OCD",
      "Anxiety",
      "Chronic Pain"
    ],
    "insurances": [
      "BlueCross",
      "Medicare",
      "Cigna",
      "Tricare",
      "Aetna",
      "Medicaid"
    ],
    "logo_url": "https://placehold.co/200x200/png?text=C",
    "hero_image_url": "https://placehold.co/1200x600/e2e8f0/475569?text=Capital+City+TMS+&+Wellness+Center+4",
    "rating": 4.3,
    "review_count": 94,
    "verified": false,
    "type": "Medical Clinic",
    "doctors": [
      "Dr. Jane Doe",
      "Dr. Emily Smith"
    ],
    "description": "Leading mental health clinic in Main County offering FDA-cleared TMS therapy for depression and OCD."
  },
  {
    "id": "ar-capitalcity-5",
    "name": "Capital City TMS & Wellness Center 5",
    "slug": "capital-city-tms-&-wellness-center-5-capital-city",
    "address": "3932 Cedar St, Ste 104",
    "city": "Capital City",
    "county": "Main County",
    "state": "AR",
    "zip": "65545",
    "geo": {
      "lat": 34.655627529239666,
      "lng": -93.79419581035515
    },
    "phone": "(555) 502-2885",
    "website": "https://example.com",
    "machines": [
      "CloudTMS"
    ],
    "specialties": [
      "PTSD",
      "Depression",
      "Chronic Pain"
    ],
    "insurances": [
      "UnitedHealthcare",
      "Medicare",
      "Medicaid",
      "Cigna",
      "Aetna",
      "Tricare"
    ],
    "logo_url": "https://placehold.co/200x200/png?text=C",
    "hero_image_url": "https://placehold.co/1200x600/e2e8f0/475569?text=Capital+City+TMS+&+Wellness+Center+5",
    "rating": 5.0,
    "review_count": 278,
    "verified": true,
    "type": "Medical Clinic",
    "doctors": [
      "Dr. Jane Doe",
      "Dr. Emily Smith"
    ],
    "description": "Leading mental health clinic in Main County offering FDA-cleared TMS therapy for depression and OCD."
  },
  {
    "id": "ar-capitalcity-6",
    "name": "Dr. David Smith Psychiatry",
    "slug": "dr-david-smith-psychiatry-capital-city",
    "address": "2379 Cedar St, Ste 247",
    "city": "Capital City",
    "county": "Main County",
    "state": "AR",
    "zip": "30677",
    "geo": {
      "lat": 32.78426645047657,
      "lng": -90.81096582589781
    },
    "phone": "(555) 680-6252",
    "website": "https://example.com",
    "machines": [
      "MagVenture",
      "NeuroStar"
    ],
    "specialties": [
      "Depression",
      "Chronic Pain",
      "Anxiety",
      "OCD"
    ],
    "insurances": [
      "Tricare",
      "Cigna",
      "Medicare",
      "Medicaid"
    ],
    "logo_url": "https://placehold.co/200x200/png?text=D",
    "hero_image_url": "https://placehold.co/1200x600/e2e8f0/475569?text=Dr.+David+Smith+Psychiatry",
    "rating": 4.3,
    "review_count": 141,
    "verified": false,
    "type": "Private Practice",
    "doctors": [
      "Dr. Jane Doe",
      "Dr. Emily Smith"
    ],
    "description": "A private psychiatric practice in Capital City, specializing in advanced neuromodulation and personalized mental health care."
  },
  {
    "id": "ar-metrocity-7",
    "name": "Dr. Lisa Patel Psychiatry",
    "slug": "dr-lisa-patel-psychiatry-metro-city",
    "address": "1072 Maple St, Ste 262",
    "city": "Metro City",
    "county": "Metro County",
    "state": "AR",
    "zip": "65570",
    "geo": {
      "lat": 35.88346486356446,
      "lng": -90.27702526865173
    },
    "phone": "(555) 622-3464",
    "website": "https://example.com",
    "machines": [
      "CloudTMS",
      "Nexstim"
    ],
    "specialties": [
      "OCD",
      "Depression",
      "Anxiety",
      "Chronic Pain"
    ],
    "insurances": [
      "Aetna",
      "Medicare",
      "UnitedHealthcare",
      "BlueCross",
      "Cigna",
      "Tricare"
    ],
    "logo_url": "https://placehold.co/200x200/png?text=D",
    "hero_image_url": "https://placehold.co/1200x600/e2e8f0/475569?text=Dr.+Lisa+Patel+Psychiatry",
    "rating": 4.0,
    "review_count": 80,
    "verified": true,
    "type": "Private Practice",
    "doctors": [
      "Dr. Jane Doe",
      "Dr. Robert Smith"
    ],
    "description": "A private psychiatric practice in Metro City, specializing in advanced neuromodulation and personalized mental health care."
  },
  {
    "id": "ar-metrocity-8",
    "name": "Dr. David Kim Psychiatry",
    "slug": "dr-david-kim-psychiatry-metro-city",
    "address": "9887 Oak St, Ste 142",
    "city": "Metro City",
    "county": "Metro County",
    "state": "AR",
    "zip": "56313",
    "geo": {
      "lat": 35.30034151134194,
      "lng": -98.21530650654934
    },
    "phone": "(555) 241-9867",
    "website": "https://example.com",
    "machines": [
      "CloudTMS",
      "BrainsWay"
    ],
    "specialties": [
      "Bipolar",
      "PTSD",
      "Depression",
      "OCD"
    ],
    "insurances": [
      "BlueCross",
      "Aetna",
      "Medicaid",
      "Cigna",
      "Tricare",
      "Medicare"
    ],
    "logo_url": "https://placehold.co/200x200/png?text=D",
    "hero_image_url": "https://placehold.co/1200x600/e2e8f0/475569?text=Dr.+David+Kim+Psychiatry",
    "rating": 4.9,
    "review_count": 358,
    "verified": true,
    "type": "Private Practice",
    "doctors": [
      "Dr. Jane Doe",
      "Dr. Emily Smith"
    ],
    "description": "A private psychiatric practice in Metro City, specializing in advanced neuromodulation and personalized mental health care."
  },
  {
    "id": "ar-metrocity-9",
    "name": "Metro City TMS & Wellness Center 3",
    "slug": "metro-city-tms-&-wellness-center-3-metro-city",
    "address": "2528 Maple St, Ste 456",
    "city": "Metro City",
    "county": "Metro County",
    "state": "AR",
    "zip": "27001",
    "geo": {
      "lat": 36.40075830488745,
      "lng": -94.82992618834051
    },
    "phone": "(555) 593-3857",
    "website": "https://example.com",
    "machines": [
      "MagVenture",
      "BrainsWay"
    ],
    "specialties": [
      "Anxiety",
      "Bipolar",
      "PTSD",
      "Depression",
      "Chronic Pain"
    ],
    "insurances": [
      "Cigna",
      "Medicaid",
      "Medicare",
      "Tricare",
      "BlueCross"
    ],
    "logo_url": "https://placehold.co/200x200/png?text=M",
    "hero_image_url": "https://placehold.co/1200x600/e2e8f0/475569?text=Metro+City+TMS+&+Wellness+Center+3",
    "rating": 4.1,
    "review_count": 293,
    "verified": false,
    "type": "Medical Clinic",
    "doctors": [
      "Dr. Jane Doe",
      "Dr. Robert Smith"
    ],
    "description": "Leading mental health clinic in Metro County offering FDA-cleared TMS therapy for depression and OCD."
  },
  {
    "id": "ar-metrocity-10",
    "name": "Dr. Lisa Smith Psychiatry",
    "slug": "dr-lisa-smith-psychiatry-metro-city",
    "address": "4049 Cedar St, Ste 473",
    "city": "Metro City",
    "county": "Metro County",
    "state": "AR",
    "zip": "35919",
    "geo": {
      "lat": 36.7894630532154,
      "lng": -98.55849774719456
    },
    "phone": "(555) 569-8765",
    "website": "https://example.com",
    "machines": [
      "NeuroStar",
      "CloudTMS"
    ],
    "specialties": [
      "Chronic Pain",
      "PTSD",
      "Bipolar",
      "Anxiety"
    ],
    "insurances": [
      "Aetna",
      "UnitedHealthcare",
      "Tricare",
      "Medicare",
      "BlueCross",
      "Medicaid"
    ],
    "logo_url": "https://placehold.co/200x200/png?text=D",
    "hero_image_url": "https://placehold.co/1200x600/e2e8f0/475569?text=Dr.+Lisa+Smith+Psychiatry",
    "rating": 4.4,
    "review_count": 381,
    "verified": false,
    "type": "Private Practice",
    "doctors": [
      "Dr. Jane Doe",
      "Dr. Robert Smith"
    ],
    "description": "A private psychiatric practice in Metro City, specializing in advanced neuromodulation and personalized mental health care."
  }
]