[
  {
    "id": "oh-capitalcity-1",
    "name": "Capital City TMS & Wellness Center 1",
    "slug": "capital-city-tms-&-wellness-center-1-capital-city",
    "address": "4712 Main St, Ste 244",
    "city": "Capital City",
    "county": "Main County",
    "state": "OH",
    "zip": "33539",
    "geo": {
      "lat": 36.83186216748166,
      "lng": -93.51700177278252
    },
    "phone": "(555) 426-1429",
    "website": "https://example.com",
    "machines": [
      "MagVenture"
    ],
    "specialties": [
      "PTSD",
      "Depression",
      "Chronic Pain"
    ],
    "insurances": [
      "Medicare",
      "UnitedHealthcare",
      "Medicaid"
    ],
    "logo_url": "https://placehold.co/200x200/png?text=C",
    "hero_image_url": "https://placehold.co/1200x600/e2e8f0/475569?text=Capital+City+TMS+&+Wellness+Center+1",
    "rating": 4.7,
    "review_count": 125,
    "verified": true,
    "type": "Medical Clinic",
    "doctors": [
      "Dr. Jane Doe",
      "Dr. Emily Smith"
    ],
    "description": "Leading mental health clinic in Main County offering FDA-cleared TMS therapy for depression and OCD."
  },
  {
    "id": "oh-capitalcity-2",
    "name": "Capital City TMS & Wellness Center 2",
    "slug": "capital-city-tms-&-wellness-center-2-capital-city",
    "address": "6930 Oak St, Ste 340",
    "city": "Capital City",
    "county": "Main County",
    "state": "OH",
    "zip": "15162",
    "geo": {
      "lat": 30.258865714560994,
      "lng": -96.3682619891412
    },
    "phone": "(555) 769-5487",
    "website": "https://example.com",
    "machines": [
      "MagVenture",
      "NeuroStar"
    ],
    "specialties": [
      "OCD",
      "PTSD",
      "Bipolar",
      "Chronic Pain",
      "Depression"
    ],
    "insurances": [
      "Aetna",
      "UnitedHealthcare",
      "BlueCross",
      "Medicare",
      "Cigna"
    ],
    "logo_url": "https://placehold.co/200x200/png?text=C",
    "hero_image_url": "https://placehold.co/1200x600/e2e8f0/475569?text=Capital+City+TMS+&+Wellness+Center+2",
    "rating": 4.2,
    "review_count": 422,
    "verified": false,
    "type": "Medical Clinic",
    "doctors": [
      "Dr. John Doe",
      "Dr. Robert Smith"
    ],
    "description": "Leading mental health clinic in Main County offering FDA-cleared TMS therapy for depression and OCD."
  },
  {
    "id": "oh-capitalcity-3",
    "name": "Capital City TMS & Wellness Center 3",
    "slug": "capital-city-tms-&-wellness-center-3-capital-city",
    "address": "9777 Main St, Ste 112",
    "city": "Capital City",
    "county": "Main County",
    "state": "OH",
    "zip": "56965",
    "geo": {
      "lat": 33.74121323554474,
      "lng": -94.14090886556005
    },
    "phone": "(555) 107-5477",
    "website": "https://example.com",
    "machines": [
      "MagVenture"
    ],
    "specialties": [
      "Depression",
      "Anxiety",
      "OCD",
      "Bipolar"
    ],
    "insurances": [
      "Medicare",
      "Cigna",
      "Aetna"
    ],
    "logo_url": "https://placehold.co/200x200/png?text=C",
    "hero_image_url": "https://placehold.co/1200x600/e2e8f0/475569?text=Capital+City+TMS+&+Wellness+Center+3",
    "rating": 4.7,
    "review_count": 429,
    "verified": true,
    "type": "Medical Clinic",
    "doctors": [
      "Dr. Jane Doe",
      "Dr. Emily Smith"
    ],
    "description": "Leading mental health clinic in Main County offering FDA-cleared TMS therapy for depression and OCD."
  },
  {
    "id": "oh-metrocity-4",
    "name": "Dr. Lisa Garcia Psychiatry",
    "slug": "dr-lisa-garcia-psychiatry-metro-city",
    "address": "7074 Main St, Ste 357",
    "city": "Metro City",
    "county": "Metro County",
    "state": "OH",
    "zip": "62950",
    "geo": {
      "lat": 36.72843475074895,
      "lng": -95.71073210479798
    },
    "phone": "(555) 357-1373",
    "website": "https://example.com",
    "machines": [
      "NeuroStar",
      "Nexstim"
    ],
    "specialties": [
      "OCD",
      "Anxiety",
      "Depression",
      "PTSD"
    ],
    "insurances": [
      "Tricare",
      "Medicaid",
      "Cigna",
      "Aetna",
      "UnitedHealthcare",
      "Medicare"
    ],
    "logo_url": "https://placehold.co/200x200/png?text=D",
    "hero_image_url": "https://placehold.co/1200x600/e2e8f0/475569?text=Dr.+Lisa+Garcia+Psychiatry",
    "rating": 4.3,
    "review_count": 335,
    "verified": true,
    "type": "Private Practice",
    "doctors": [
      "Dr. Jane Doe",
      "Dr. Emily Smith"
    ],
    "description": "A private psychiatric practice in Metro City, specializing in advanced neuromodulation and personalized mental health care."
  },
  {
    "id": "oh-metrocity-5",
    "name": "Dr. Alan Garcia Psychiatry",
    "slug": "dr-alan-garcia-psychiatry-metro-city",
    "address": "7891 Cedar St, Ste 126",
    "city": "Metro City",
    "county": "Metro County",
    "state": "OH",
    "zip": "81763",
    "geo": {
      "lat": 39.499317269890405,
      "lng": -96.11486004183256
    },
    "phone": "(555) 454-7021",
    "website": "https://example.com",
    "machines": [
      "Magstim"
    ],
    "specialties": [
      "Depression",
      "Chronic Pain",
      "PTSD",
      "OCD",
      "Anxiety"
    ],
    "insurances": [
      "Medicaid",
      "UnitedHealthcare",
      "Tricare",
      "BlueCross",
      "Medicare",
      "Aetna"
    ],
    "logo_url": "https://placehold.co/200x200/png?text=D",
    "hero_image_url": "https://placehold.co/1200x600/e2e8f0/475569?text=Dr.+Alan+Garcia+Psychiatry",
    "rating": 4.7,
    "review_count": 208,
    "verified": true,
    "type": "Private Practice",
    "doctors": [
      "Dr. Jane Doe",
      "Dr. Emily Smith"
    ],
    "description": "A private psychiatric practice in Metro City, specializing in advanced neuromodulation and personalized mental health care."
  },
  {
    "id": "oh-metrocity-6",
    "name": "Metro City TMS & Wellness Center 3",
    "slug": "metro-city-tms-&-wellness-center-3-metro-city",
    "address": "2748 Main St, Ste 403",
    "city": "Metro City",
    "county": "Metro County",
    "state": "OH",
    "zip": "65669",
    "geo": {
      "lat": 31.167376086218734,
      "lng": -96.76360919251306
    },
    "phone": "(555) 711-1518",
    "website": "https://example.com",
    "machines": [
      "Nexstim"
    ],
    "specialties": [
      "Bipolar",
      "PTSD",
      "Chronic Pain"
    ],
    "insurances": [
      "Aetna",
      "Tricare",
      "Medicare"
    ],
    "logo_url": "https://placehold.co/200x200/png?text=M",
    "hero_image_url": "https://placehold.co/1200x600/e2e8f0/475569?text=Metro+City+TMS+&+Wellness+Center+3",
    "rating": 4.1,
    "review_count": 43,
    "verified": true,
    "type": "Medical Clinic",
    "doctors": [
      "Dr. Jane Doe",
      "Dr. Robert Smith"
    ],
    "description": "Leading mental health clinic in Metro County offering FDA-cleared TMS therapy for depression and OCD."
  }
]